,Unnamed: 0,id,name,address,postal_code,charger_level,lat,lng,cost,gg_address,gg_lat,gg_lng,city,province
0,0,CEA-10804,FCR - Place Nelligan,"1134 St-René Boulevard West, Gatineau, QC",J8T 6H1,Level2,45.487851,-75.70121999999998,"1,00 $ (CAD) de l'heure","1134 Boulevard Saint-René O, Gatineau, QC J8T 8A5, Canada",45.4881818,-75.70135839999998,Gatineau,QC
1,1,CEA-10097,DGI - Complexe Desjardins,"1251 rue Jeanne-Mance, Montréal, QC",H2X 3Y2,Level2,45.507924,-73.56414000000002,"1,00 $ (CAD) de l'heure","1251 Rue Jeanne-Mance, Montréal, QC H2X, Canada",45.5070394,-73.5651293,Montréal,QC
2,2,CEA-11115,Municipalité de Saint-Adrien,"1589 Principale, Saint-Adrien, QC",J0A 1C0,Level2,45.8195769,-71.7250025,"1,00 $ (CAD) de l'heure","1589 Rue Principale, Saint-Adrien, QC J0A 1C0, Canada",45.819576899999994,-71.7228138,Saint-Adrien,QC
3,3,CEC-00073,BRCC - CDSMML - Paspébiac,"5 Boul. Gérard-D-Lévesque Est, Pasbébiac, QC",G0C 2K0,FastDC,48.029571,-65.24814,"10,00 $ (CAD) de l'heure","5 Boulevard Gérard D. Levesque E, Paspébiac, QC G0C 2K0, Canada",48.0293177,-65.2481624,Paspébiac,QC
4,4,CEA-067,1482 | BHR | SLA | 2727 Thiemens : Bibliothèque du Boisé,"2727 boul. Thimens, Saint-Laurent, QC",H4R 1T4,Level2,45.504816,-73.70434,"2,50 $ (CAD) par session","2727 Boulevard Thimens, Saint-Laurent, QC H4R 1T4, Canada",45.504146399999996,-73.7053753,Saint-Laurent,QC
5,5,CEA-10480,Sur Rue - Mont Tremblant - Parc Daniel-Lauzon,"268 rue du Couvent, Mont Tremblant, QC",J8E 1K6,Level2,46.195234,-74.623006,"1,00 $ (CAD) de l'heure","268 Rue du Couvent, Mont-Tremblant, QC J8E 1K6, Canada",46.19472649999999,-74.62374229999999,Mont-Tremblant,QC
6,6,CEC-00062,BRCC - Ville d'Otterburn Park - Halte Touristique,"761 chemin des Patriotes, Otterburn Park, QC",J3H 1Z5,FastDC,45.544704,-73.21178499999998,"10,00 $ (CAD) de l'heure","761 Chemin des Patriotes Sud, Otterburn Park, QC J3H, Canada",45.5442378,-73.212485,Otterburn Park,QC
7,7,CEC-00194,BRCC - Val-d'Or - Dépanneur Voisin Beauséjour,"315 route 117, Val d'Or, QC",J9P 7C4,FastDC,48.07221,-77.382662,"10,00 $ (CAD) de l'heure","315 QC-117, Val-d'Or, QC J9P 7C4, Canada",48.0725876,-77.3829689,Val-d'Or,QC
8,8,CEA-238,Hydro-Québec - CA Lebourgneuf,"2625 boul. Lebourgneuf, Québec, QC",G2C 1P1,Level2,46.825934253917,-71.3167104232787,"2,50 $ (CAD) par session","2625 Boulevard Lebourgneuf, Québec, QC G2C 1S2, Canada",46.825905299999995,-71.3167393,Québec,QC
9,9,CEA-461,Shawinigan - Aréna Gilles Bourassa,"1705 117e rue, Shawinigan-Sud, QC",G9N 6V3,Level2,46.51708,-72.75541,"1,00 $ (CAD) de l'heure","117 Rue Bouvette #1705, Shawinigan-Sud, QC G9P 4X1, Canada",46.5285842,-72.7405363,Shawinigan-Sud,QC
10,10,CEA-10277,Ski Garceau,"190 Chemin du Lac Blanc, Saint-Donat-de-Montcalm, QC",J0T 2C0,Level2,46.337653,-74.22065,"1,00 $ (CAD) de l'heure","190 Chemin du Lac Blanc, Saint-Donat-de-Montcalm, QC J0T 2C0, Canada",46.3375174,-74.2200672,Saint-Donat-de-Montcalm,QC
11,11,CEA-11250,RIO - Parc Olympique,"4141 Avenue Pierre-De Coubertin, Montréal, QC",H1V 3N7,Level2,45.5554177287515,-73.5513811997223,"2,50 $ (CAD) par session","4141 Avenue Pierre-De Coubertin, Montréal, QC H1V 3N7, Canada",45.559774,-73.55148319999998,Montréal,QC
12,12,CEA-10630,Le Westin Resort & Spa - Tremblant,"100 chemin de Kandahar, Mont-Tremblant, QC",J8E 1E2,Level2,46.212627,-74.586809,"1,00 $ (CAD) de l'heure","100 Chemin de Kandahar, Mont-Tremblant, QC J8E 1E2, Canada",46.2129653,-74.58642309999998,Mont-Tremblant,QC
13,13,CEA-470,St-Hubert - Beauport,"3410 boul. Ste-Anne, Québec, QC",G1E 3L7,Level2,46.852512,-71.19589,"1,00 $ (CAD) de l'heure","3410 Boulevard Sainte-Anne, Québec, QC G1E 3L7, Canada",46.85261329999999,-71.1957403,Québec,QC
14,14,CEA-10392,Beaconsfield - Parc Christmas,"424 boul Beaconsfield, Beaconsfield, QC",H9W 4B7,Level2,45.419853,-73.87836,"1,00 $ (CAD) de l'heure","424 Boulevard Beaconsfield, Beaconsfield, QC H9W 4B7, Canada",45.4198769,-73.8785848,Beaconsfield,QC
15,15,CEA-10306,301 | BSR | RPP | 6511 St-André,"6511 Rue Saint-André, Montréal, QC",H2S 2K7,Level2,45.536686,-73.60300500000002,"1,00 $ (CAD) de l'heure","6511 Rue Saint-André, Montréal, QC H2S 2K7, Canada",45.536734,-73.6030444,Montréal,QC
16,16,CEA-10031,St-Hubert - Mont-Tremblant,"330 rue de St-Jovite, Mont-Tremblant, QC",J8E 2Z9,Level2,46.1191986571841,-74.56836030671121,"1,00 $ (CAD) de l'heure","330 Rue de Saint Jovite, Mont-Tremblant, QC J8E 2Z9, Canada",46.1190817,-74.56857009999999,Mont-Tremblant,QC
17,17,CEA-10202,Decarie Square,"6900 Boul. Décarie, Montréal, QC",H3X 2T8,Level2,45.490428,-73.650335,"1,00 $ (CAD) de l'heure","6900 Boulevard Décarie, Côte Saint-Luc, QC H3X 2T8, Canada",45.4909446,-73.65074320000001,Côte Saint-Luc,QC
18,18,CEA-006,PJC - Greenfield Park,"3216 boulevard Taschereau, Greenfield Park, QC",J4V 2H3,Level2,45.495291168277,-73.4836227681922,"1,00 $ (CAD) de l'heure","3216 Boulevard Taschereau, Greenfield Park, QC J4V 2H3, Canada",45.49556,-73.4834819,Greenfield Park,QC
19,19,CEC-00099,BRCC - St-Hubert - St-Hyacinthe,"1230 rue Johnson Ouest, St-Hyacinthe, QC",J2S 7K7,FastDC,45.640278,-72.969306,"10,00 $ (CAD) de l'heure","1230 Rue Daniel - Johnson O, Saint-Hyacinthe, QC J2S 7K7, Canada",45.640478400000006,-72.9686036,Saint-Hyacinthe,QC
20,20,CEA-10848,717 | BSR | CDN-NDG | 5225 Sherbrooke,"5252 Sherbrooke, Montréal, QC",H4A 1V1,Level2,45.474704,-73.608527,"1,00 $ (CAD) de l'heure","5252 Rue Sherbrooke E, Montréal, QC H1N, Canada",45.568083200000004,-73.5521558,Montréal,QC
21,21,CEA-10156,703 | BSR | CDN-NDG | 5038 rue Sherbrooke O,"5038 Sherbrooke O, Montréal, QC",H4A 1S7,Level2,45.476487,-73.606153,"1,00 $ (CAD) de l'heure","5038 Rue Sherbrooke Ouest, Montréal, QC H4A 1S7, Canada",45.4763895,-73.6059853,Montréal,QC
22,22,CEA-10465,Municipalité de Saint-Étienne-des-Grès,"1260 rue Saint-Alphonse, Saint-Étienne-des-Grès, QC",G0X 2P0,Level2,46.441985,-72.771073,"1,00 $ (CAD) de l'heure","1260 Rue Saint Alphonse, Saint-Étienne-des-Grès, QC G9C 1M2, Canada",46.442105600000005,-72.7708031,Saint-Étienne-des-Grès,QC
23,23,CEA-124,FCR - Carrefour St-David Ouest,"2837 avenue St-David, Québec, Q",G1C 0J3,Level2,46.865528,-71.216852,"1,00 $ (CAD) de l'heure","2837 Avenue St David, Québec, QC G1C 0J3, Canada",46.86537,-71.2170749,Québec,QC
24,24,CEA-11179,Laval - Centre communautaire Lausanne,"1333 boul. Chomedey, bureau 601, Laval, QC",H7V 3Z4,Level2,45.618488,-73.71923699999998,"1,00 $ (CAD) de l'heure","1333 Boulevard Chomedey bureau 601, Laval, QC H7V 3Y1, Canada",45.5505888,-73.74384609999998,Laval,QC
25,25,CEA-090,1280 | BHR | SLE | 5300 Robert : Aréna Martin-Brodeur,"5300 Boulevard Robert, St-Léonard, QC",H1R 1R1,Level2,45.58554,-73.59836999999997,"2,50 $ (CAD) par session","5300 Boulevard Robert, Saint-Léonard, QC H1R 1P9, Canada",45.5853269,-73.59876109999998,Saint-Léonard,QC
26,26,CEA-10100,Musée J. Armand Bombardier,"1001 Avenue J.A. Bombardier, Valcourt, QC",J0E 2L0,Level2,45.494204,-72.310161,"2,50 $ (CAD) par session","1001 Avenue Ja Bombardier, Valcourt, QC J0E 2L0, Canada",45.494398,-72.3102186,Valcourt,QC
27,27,CEA-11445,1302 | BSR | OUTR | 123 Querbes,"123 Avenue Querbes, Montréal, QC",H3T 1Z1,Level2,45.517579,-73.598371,"2,50 $ (CAD) par session","123 Avenue Querbes, Outremont, QC H2V 3V8, Canada",45.5178083,-73.5980917,Outremont,QC
28,28,CEA-10637,808 | BSR | SO | 6098 Mazarin,"6098 Rue Mazarin, Montréal, QC",H4E 2X2,Level2,45.456132,-73.60130799999997,"1,00 $ (CAD) de l'heure","6098 Rue Mazarin, Montréal, QC H4E 2X2, Canada",45.456127,-73.601213,Montréal,QC
29,29,CEA-11014,105 | BSR | AC | 1530 Fleury,"1530 rue Fleury, Montréal, QC",H2C 2Y6,Level2,45.562906,-73.656227,"1,00 $ (CAD) de l'heure","1530 Rue Fleury E, Montréal, QC H2C 2Y6, Canada",45.5629748,-73.6561512,Montréal,QC
30,30,CEA-10378,109 | BSR | AC | 205 Chabanel,"205 Rue Chabanel O, Montréal, QC",H2N 1G3,Level2,45.540928,-73.653312,"1,00 $ (CAD) de l'heure","205 Rue Chabanel O, Montréal, QC H2N 1G3, Canada",45.540977000000005,-73.6536969,Montréal,QC
31,31,CEA-10843,320 | BSR | RPP | 3810 Rosemont,"3810 boul. Rosemont, Montréal, QC",H1X 2P6,Level2,45.5578,-73.576045,"1,00 $ (CAD) de l'heure","3810 Boulevard Rosemont, Montréal, QC H1X 1L4, Canada",45.5578734,-73.575942,Montréal,QC
32,32,CEA-10183,625 | BSR | VM | 1956 Frontenac,"1956 Rue Frontenac, Montréal, QC",H2K 2Z1,Level2,45.532725,-73.552184,"1,00 $ (CAD) de l'heure","1956 Rue Frontenac, Montréal, QC H2K 2Z1, Canada",45.5325695,-73.5521119,Montréal,QC
33,33,CEA-152,St-Hubert - Rimouski,"395 Boulevard Arthur-Buies Est, Rimouski, QC",G5M 1Y1,Level2,48.4529157001154,-68.4942690674591,"1,00 $ (CAD) de l'heure","395 Boulevard Arthur-Buies E, Rimouski, QC G5M 0B2, Canada",48.4528653,-68.49428220000001,Rimouski,QC
34,34,CEA-197,Hydro-Québec - St-Hubert,"5250 Armand-Frappier, St-Hubert, QC",J3Z 1G3,Level2,45.45869,-73.40989,"2,50 $ (CAD) par session","5250 Rue Armand-Frappier, Saint-Hubert, QC J3Z 1G3, Canada",45.45865449999999,-73.40917379999998,Saint-Hubert,QC
35,35,CEA-10840,316 | BSR | RPP | 4300 Bélanger,"4300A Bélanger, Montréal, QC",H1T 3M1,Level2,45.566674,-73.585495,"1,00 $ (CAD) de l'heure","4300 Rue Bélanger, Montréal, QC H1T 1A7, Canada",45.5667637,-73.5854248,Montréal,QC
36,36,CEA-10544,820 | BSR | SO | 3041 Notre-Dame,"3041 Notre-Dame , Montréal, QC",H4C 2J2,Level2,45.480917,-73.578968,"1,00 $ (CAD) de l'heure","3041 Rue Notre-Dame Ouest, Montréal, QC H4C 1N9, Canada",45.480889000000005,-73.57878889999998,Montréal,QC
37,37,CEA-11172,Municipalité de Natashquan,"29 Chemin d'en Haut, Natashquan, QC",G0G 2E0,Level2,50.18635,-61.822233,"1,00 $ (CAD) de l'heure","29 Chemin d'en Haut, Natashquan, QC G0G 2E0, Canada",50.1847727,-61.81662829999999,Natashquan,QC
38,38,CEA-245,Lacolle - Halte Cycliste,"103 Rue de l'Église Sud, Lacolle, QC",J0J 1J0,Level2,45.074214,-73.37503000000002,"1,00 $ (CAD) de l'heure","103 Rue de l'Église S, Lacolle, QC J0J 1J0, Canada",45.0736084,-73.37554809999999,Lacolle,QC
39,39,CEA-10000,CAA-Québec,"444 rue Bouvier, Québec, QC",G2J 1E3,Level2,46.8377209141161,-71.26914563558198,"1,00 $ (CAD) de l'heure","444 Rue Bouvier, Québec, QC G2J 1E3, Canada",46.8378545,-71.2694446,Québec,QC
40,40,CEB-10029,RONA - Québec,"1500 rue Bouvier, Québec, QC",G2K 1N8,Level2,46.827658,-71.29339399999998,"1,00 $ (CAD) de l'heure","1500 Rue Bouvier, Québec, QC G2K 1N8, Canada",46.828261600000005,-71.2930989,Québec,QC
41,41,CEA-10839,Quartier Beauport,"2400 Boulevard Louis-XIV, Québec, QC",G1C 5Y8,Level2,46.894707,-71.20859,"1,00 $ (CAD) de l'heure","2400 Boulevard Louis-XIV, Québec, QC G1C 5Y8, Canada",46.8939763,-71.2089709,Québec,QC
42,42,CEA-11480,331 | BSR | RPP | 6679 Rue Garnier,"6679 Rue Garnier, Montréal, QC",H2G 3A2,Level2,45.5428645,-73.601371,"1,00 $ (CAD) de l'heure","6679 Rue Garnier, Montréal, QC H2G 3A2, Canada",45.54289199999999,-73.60114999999998,Montréal,QC
43,43,CEA-11117,Maison du Citoyen,"145 rue Saint-Louis, Saint-Eustache, QC",J7R 1X9,Level2,45.55845,-73.893728,"1,00 $ (CAD) de l'heure","145 Rue Saint-Louis, Saint-Eustache, QC J7R 1X9, Canada",45.557795,-73.8889293,Saint-Eustache,QC
44,44,CEA-10933,1412 | BSR | SLA | 3100 Toupin,"3100 Toupin, Montréal, QC",H4K 2V4,Level2,45.517305,-73.726967,"2,50 $ (CAD) par session","3100 Boulevard Toupin, Saint-Laurent, QC H4K 1Y8, Canada",45.5177172,-73.7268538,Saint-Laurent,QC
45,45,CEA-10070,DGI - Complexe Desjardins,"1251 rue Jeanne-Mance, Montréal, QC",H2X 3Y2,Level2,45.507924,-73.56414000000002,"1,00 $ (CAD) de l'heure","1251 Rue Jeanne-Mance, Montréal, QC H2X, Canada",45.5070394,-73.5651293,Montréal,QC
46,46,CEA-10448,801 | BSR | SO | 3451 St-Jacques,"3451 Rue Saint-Jacques, Montréal, QC",H4C 1H2,Level2,45.48193,-73.582383,"1,00 $ (CAD) de l'heure","3451 Rue Saint-Jacques, Montréal, QC H4C 1H2, Canada",45.4822301,-73.58218719999998,Montréal,QC
47,47,CEA-10690,411 | BSR | MHM | 3450 Ste-Catherine,"3450 Ste-Catherine, Montréal, QC",H1W 2E2,Level2,45.541957,-73.539358,"1,00 $ (CAD) de l'heure","3450 Rue Sainte-Catherine E, Montréal, QC H1W 2E2, Canada",45.5418559,-73.5393527,Montréal,QC
48,48,CEA-11295,231 | BSR | VSMPE | 3901 Jarry,"3901 jarry E, Montréal, QC",H1Z 2G1,Level2,45.569855,-73.604919,"1,00 $ (CAD) de l'heure","3901 Rue Jarry E, Montréal, QC H1Z 2G1, Canada",45.57100820000001,-73.6047437,Montréal,QC
49,49,CEA-10452,202 | BSR | VSMPE | 520 Jean-Talon O,"520 rue Jean-Talon O, Montréal, QC",H3N 1R5,Level2,45.528352,-73.623127,"1,00 $ (CAD) de l'heure","520 Rue Jean-Talon Ouest, Montreal, QC H3N 1R5, Canada",45.5282201,-73.6232596,Montreal,QC
50,50,CEB-10074,Exo - Gare Saint-Jérôme,"455 boul. Jean-Baptiste-Rolland, St-Jérôme, QC",J7Z 2H5,Level2,45.7737922668457,-73.99891662597659,"2,50 $ (CAD) par session","455 Boul Jean-Baptiste-Rolland E, Saint-Jérôme, QC J7Z 2G9, Canada",45.773525899999996,-73.9978173,Saint-Jérôme,QC
51,51,CEA-083,580 | BHR | PMR | 4365 Cartier : Aréna Mont-Royal,"4365 Cartier Rue, Montréal, Montréal, QC",H2H 2N9,Level2,45.533424,-73.57226,"2,50 $ (CAD) par session","4365 Rue Cartier, Montréal, QC H2H 2N9, Canada",45.533234,-73.57181299999998,Montréal,QC
52,52,CEC-00052,BRCC - CDSMML - Matane,"286 Av St-Jérôme, Matane, QC",G4W 3A2,FastDC,48.843378,-67.529801,"10,00 $ (CAD) de l'heure","286 Av St-Jérôme, Matane, QC G4W 3A2, Canada",48.844212799999994,-67.5297923,Matane,QC
53,53,CEA-10247,1702 | BSR | VER | 5000 Wellington,"5000 Rue Wellington, Verdun, QC",H4G 1X9,Level2,45.455871,-73.567543,"1,00 $ (CAD) de l'heure","5000 Rue Wellington, Verdun, QC H4G 1Y1, Canada",45.4557625,-73.5672441,Verdun,QC
54,54,CEA-10356,709 | BSR | CDN-NDG |5137 Décarie,"5137 Décarie, Montréal, QC",H3W 3C2,Level2,45.484167,-73.629705,"1,00 $ (CAD) de l'heure","5137 Boulevard Décarie, Montréal, QC H3W 3C3, Canada",45.4843052,-73.6295153,Montréal,QC
55,55,CEA-11188,116 | BSR | AC | 10625 Francis,"10625 Rue Francis, Montréal, QC",H2C 3A5,Level2,45.565295,-73.660453,"1,00 $ (CAD) de l'heure","10625 Rue Francis, Montréal, QC H2C 3A5, Canada",45.5653481,-73.66034669999998,Montréal,QC
56,56,CEA-072,Ville de Boucherville - Centre Multifonctionnel,"1075 Lionel-Daunais, Boucherville, QC",J4B 8N5,Level2,45.588807,-73.42835,"1,00 $ (CAD) de l'heure","1075 Rue Lionel-Daunais, Boucherville, QC J4B 8N5, Canada",45.589789,-73.4279867,Boucherville,QC
57,57,CEA-020,FCR - Carrefour du Plateau des Grives,"205-219 boul. du Plateau, Gatineau, QC",J9J 0N4,Level2,45.43321,-75.779792,"1,00 $ (CAD) de l'heure","205 Boul du Plateau, Gatineau, QC J9A 0N4, Canada",45.4345374,-75.78027409999999,Gatineau,QC
58,58,CEB-10141,St-Hubert - Sainte-Thérèse,"350 boul. Labelle, Ste-Thérèse, QC",J7E 2Y1,Level2,45.6480903625488,-73.84043884277341,"1,00 $ (CAD) de l'heure","350 Boulevard Curé-Labelle, Sainte-Thérèse, QC J7E 2Y1, Canada",45.64835479999999,-73.84017220000001,Sainte-Thérèse,QC
59,59,CEA-10262,211 | BSR | VSMPE | 625 Liege O,"625 Liege O, Montréal, QC",H3N 1A7,Level2,45.532997,-73.642027,"1,00 $ (CAD) de l'heure","625 Rue de Liège O, Montréal, QC H3N 1A7, Canada",45.533015999999996,-73.64207259999999,Montréal,QC
60,60,CEA-10612,412 | BSR | MHM | 2222 Valois,"2222 Avenue Valois , Montréal, QC",H1W 3M5,Level2,45.548361,-73.54682700000002,"1,00 $ (CAD) de l'heure","2222 Avenue Valois, Montréal, QC H1W 3M5, Canada",45.548027000000005,-73.54698540000001,Montréal,QC
61,61,CEC-00154,BRCC - Restaurant Le Chavigny - Deschambault,"11 rue des Pins, Deschambault-Grondines, QC",G0A 1S0,FastDC,46.639683,-71.99645,"10,00 $ (CAD) de l'heure","11 Rue des Pins, Deschambault, QC G0A 1S0, Canada",46.6392827,-71.99646129999998,Deschambault,QC
62,62,CEA-10844,713 | BSR | CDN-NDG | 5468 Claranald,"5468A Claranald, Montréal, QC",H3X 2S7,Level2,45.483967,-73.637694,"1,00 $ (CAD) de l'heure","5468 Avenue Clanranald, Montréal, QC H3X 2S3, Canada",45.4837375,-73.63781469999998,Montréal,QC
63,63,CEA-10740,224 | BSR | VSMPE | 7200 Hutchison,"7200 Hutchison, Montréal, QC",H3N 1Z2,Level2,45.529826,-73.62305,"1,00 $ (CAD) de l'heure","7200 Rue Hutchison, Montréal, QC H3N 1Z2, Canada",45.529608,-73.62315699999998,Montréal,QC
64,64,CEA-10802,Longueuil - Parc de la cité,"6201 Boulevard Davis, Saint-Hubert, QC",J3Y 8Y4,Level2,45.488412,-73.41028,"1,00 $ (CAD) de l'heure","6201 Boulevard Davis, Saint-Hubert, QC J3Y 8Y4, Canada",45.4876933,-73.4099027,Saint-Hubert,QC
65,65,CEC-00107,BRCC - Lac-Bouchette,"295 Rue Principale, Lac-Bouchette, QC",G0W 1V0,FastDC,48.25549,-72.18600500000002,"10,00 $ (CAD) de l'heure","295 Rue Principale, Lac-Bouchette, QC G0W 1V0, Canada",48.255468799999996,-72.18618120000001,Lac-Bouchette,QC
66,66,CEC-00193,BRCC - Saint-Ours - Marché Tradition,"2471 Rue Immaculée-Conception, Saint-Ours, QC",J0G 1P0,FastDC,45.89201,-73.148464,"10,00 $ (CAD) de l'heure","2471 Rue Immaculée-Conception, Saint-Ours, QC J0G 1P0, Canada",45.8922687,-73.1480096,Saint-Ours,QC
67,67,CEA-10687,Saint-André-d'Argenteuil - Mairie,"10 Rue de la Mairie, Saint-André-d'Argenteuil, QC",J0V 1X0,Level2,45.559825,-74.33206,"2,50 $ (CAD) par session","10 Rue de la Mairie, Saint-André-d'Argenteuil, QC J0V 1X0, Canada",45.5597144,-74.3322551,Saint-André-d'Argenteuil,QC
68,68,CEC-00038,BRCC - AddÉnergie,"2327 boul. Versant Nord, Québec, QC", G1N 4C2,FastDC,46.79125,-71.287345,"10,00 $ (CAD) de l'heure","2327 Boulevard du Versant N, Québec, QC G1N 4C2, Canada",46.79100829999999,-71.2872321,Québec,QC
69,69,CEA-10380,708 | BSR | CDN-NDG | 6200 Côte Des-Neiges,"6200 ch. de la Côte-des-Neiges, Montréal, QC",H3S 2A1,Level2,45.500598,-73.632462,"1,00 $ (CAD) de l'heure","6200 Chemin de la Côte-des-Neiges, Montréal, QC H3S 2A1, Canada",45.500826200000006,-73.63260240000001,Montréal,QC
70,70,CEA-388,CÉGEP de Chicoutimi,"534, rue Jacques-Cartier est, Chicoutimi, QC",G7H 1Z6,Level2,48.424435996927,-71.054717870994,"2,50 $ (CAD) par session","534 Rue Jacques-Cartier E, Chicoutimi, QC G7H 1Z5, Canada",48.424803600000004,-71.0531281,Chicoutimi,QC
71,71,CEB-10146,FCR - Carrefour St-David Ouest,"2837 avenue St-David, Québec, QC",G1C 0J3,Level2,46.865528,-71.216852,"1,00 $ (CAD) de l'heure","2837 Avenue St David, Québec, QC G1C 0J3, Canada",46.86537,-71.2170749,Québec,QC
72,72,CEC-00164,BRCC - Baie-Comeau-Stationnement Av. Chapais,"20 avenue Chapais, Baie-Comeau, QC",G5C 2S6,FastDC,49.220696,-68.154457,"10,00 $ (CAD) de l'heure","Avenue Chapais, Baie-Comeau, QC G4Z, Canada",49.220648600000004,-68.154691,Baie-Comeau,QC
73,73,CEA-478,St-Hubert - Fleurimont,"1818 King E, Sherbrooke, QC",J1G 5G6,Level2,45.40941,-71.848632,"1,00 $ (CAD) de l'heure","1818 Rue King E, Sherbrooke, QC J1G 5G6, Canada",45.4093314,-71.84832229999998,Sherbrooke,QC
74,74,CEA-11239,826 | BSR | SO | 2855 Centre,"2855 rue du Centre, Montréal, QC",H4C 3B4,Level2,45.476501,-73.57244,"1,00 $ (CAD) de l'heure","2855 Rue Centre, Montréal, QC H3K 3C4, Canada",45.4765656,-73.57280159999998,Montréal,QC
75,75,CEA-10919,Longueuil - Parc de la cité,"6201 Boulevard Davis, Saint-Hubert, QC",J3Y 8Y4,Level2,45.488412,-73.41028,"1,00 $ (CAD) de l'heure","6201 Boulevard Davis, Saint-Hubert, QC J3Y 8Y4, Canada",45.4876933,-73.4099027,Saint-Hubert,QC
76,76,CEA-11202,830 | BSR | SO | 256 Charlevoix,"256 Charlevoix, Montréal, QC",H3J 1N7,Level2,45.482396,-73.57547199999998,"1,00 $ (CAD) de l'heure","256 Rue Charlevoix, Montréal, QC H3J 1N7, Canada",45.48209809999999,-73.57517840000001,Montréal,QC
77,77,CEA-158,FCR - RBC Lachenaie,"287 montée des Pionniers, Terrebonne, QC",J6V 1H4,Level2,45.7111470669376,-73.51276771053449,"1,00 $ (CAD) de l'heure","287 Montée des Pionniers, Terrebonne, QC J6V 1H4, Canada",45.7110777,-73.51254300000001,Terrebonne,QC
78,78,CEA-11012,Sur Rue - Longueuil - 61 rue St-Charles,"61 Rue Saint-Charles Ouest, Longueuil, QC",J4H 1C5,Level2,45.540188,-73.50893,"1,00 $ (CAD) de l'heure","61 Rue Saint-Charles Ouest, Longueuil, QC J4H 1C6, Canada",45.540294200000005,-73.5088916,Longueuil,QC
79,79,CEA-10931,Sur Rue - Longueuil - 1985 Gaetan-Boucher,"1985 boul. Gaetan-Boucher, Longueuil, QC",J3Y 3R5,Level2,45.498734,-73.40605,"1,00 $ (CAD) de l'heure","1985 Boulevard Gaétan-Boucher, Saint-Hubert, QC J3Y 3R5, Canada",45.4982301,-73.40641769999998,Saint-Hubert,QC
80,80,CEA-298,Stoneham - Mairie,"325 Chemin du Hibou, Stoneham-et-Tewkesbury, QC",G3C 1P1,Level2,46.9998522272165,-71.3688772883606,"1,00 $ (CAD) de l'heure","325 Chemin du Hibou, Stoneham-et-Tewkesbury, QC G3C 1P1, Canada",46.999611200000004,-71.3687705,Stoneham-et-Tewkesbury,QC
81,81,CEA-055,285 | BHR | VSMPE | 8000 de Normanville : Centre sportif Jean-Rougeau,"8000 rue de Normanville, Montréal, QC",H2R 2V6,Level2,45.548532,-73.622186,"2,50 $ (CAD) par session","8000 Rue de Normanville, Montréal, QC H2R 2V6, Canada",45.54834990000001,-73.62149840000001,Montréal,QC
82,82,CEA-10949,1710 | BSR | VER | 282 Elgar,"282 Elgar, Verdun, QC",H3E 1C8,Level2,45.456851,-73.546276,"2,50 $ (CAD) par session","282 Rue Elgar, Verdun, QC H3E 1C9, Canada",45.4563935,-73.54640090000001,Verdun,QC
83,83,CEA-10892,Ville de Sherbrooke - Grenouillière,"50 rue Meadow, Sherbrooke, QC",J1H 5H9,Level2,45.4034690856934,-71.8907775878906,"1,00 $ (CAD) de l'heure","50 Rue Meadow, Sherbrooke, QC J1H 5N3, Canada",45.4033336,-71.89070009999999,Sherbrooke,QC
84,84,CEA-207B,Victoriaville - Stationnement de Bigarré,"125 rue de Bigarré, Victoriaville, QC",G6P 4Z2,Level2,46.057979,-71.95600999999998,"1,00 $ (CAD) de l'heure","125 Rue de Bigarré, Victoriaville, QC G6P 9P6, Canada",46.05746389999999,-71.9573662,Victoriaville,QC
85,85,CEA-447,St-Hubert - Montmagny,"205 Chemin des Poirier, Montmagny, QC",G5V 4J9,Level2,46.969361,-70.577885,"1,00 $ (CAD) de l'heure","205 Chemin des Poirier, Montmagny, QC G5V 3X7, Canada",46.9691954,-70.57839140000002,Montmagny,QC
86,86,CEA-127,Ville de McMasterville - Hôtel de Ville,"255 Boulevard Constable, McMasterville, QC",J3G 6N9,Level2,45.5506036116578,-73.2289537423973,"1,00 $ (CAD) de l'heure","255 Boul Constable, McMasterville, QC J3G 6N9, Canada",45.550151299999996,-73.22909090000002,McMasterville,QC
87,87,CEA-10271,1701 | BSR | VER | 4214 Wellington,"4214 Rue Wellington, Verdun, QC",H4G 1W2,Level2,45.461833,-73.566813,"1,00 $ (CAD) de l'heure","4214 Rue Wellington, Verdun, QC H4G 1W2, Canada",45.461779,-73.5668239,Verdun,QC
88,88,CEA-10302,305 | BSR | RPP | 26e avenue,"6435 26e Avenue, Montréal, QC",H1T 3K7,Level2,45.564852,-73.577294,"1,00 $ (CAD) de l'heure","6435 26e Avenue, Montréal, QC H1T 3K7, Canada",45.5648695,-73.57716059999998,Montréal,QC
89,89,CEB-10073,CDPQ - Stationnement Deux-Montagnes,"400 boul. des Deux-Montagnes, Deux-Montagnes, QC",J7R 7C2,Level2,45.5448760986328,-73.9116973876953,"2,50 $ (CAD) par session","400 Boulevard de Deux-Montagnes, Deux-Montagnes, QC J7P 0B4, Canada",45.5453604,-73.91237609999999,Deux-Montagnes,QC
90,90,CEA-498,Laval - Hôtel de Ville,"1 place du Souvenir, Laval, QC",H7V 3Z4,Level2,45.551533,-73.7452,"1,00 $ (CAD) de l'heure","1 Place du Souvenir, Laval, QC H7V 1W7, Canada",45.5514654,-73.74460359999998,Laval,QC
91,91,CEC-00067,BRCC - CDSMML - Percé,"137 route 132 Ouest, Percé, QC",G0C 2L0,FastDC,48.524071,-64.210534,"10,00 $ (CAD) de l'heure","137 QC-132, Percé, QC G0C 2L0, Canada",48.539818100000005,-64.2636395,Percé,QC
92,92,CEC-00013,BRCC - St-Hubert - Drummondville,"125 boul. St-Joseph, Drummondville, QC",J2B 7P5,FastDC,45.898911,-72.5257,"10,00 $ (CAD) de l'heure","125 Boulevard Saint-Joseph, Drummondville, QC J2C 2A5, Canada",45.8987811,-72.5254916,Drummondville,QC
93,93,CEA-348,Plessisville - Hôtel de Ville,"1700, rue Saint-Calixte, Plessisville, QC",G6L 1R3,Level2,46.2186422337573,-71.7714667303657,"2,50 $ (CAD) par session","1700 Rue Saint Calixte, Plessisville, QC G6L, Canada",46.2187378,-71.77165149999998,Plessisville,QC
94,94,CEA-10172,614 | BSR | VM | 1455 Metcalfe,"1550 rue Metcalfe, Montréal, QC",H3A 3L8,Level2,45.501087,-73.573064,"1,00 $ (CAD) de l'heure","1550 Rue Metcalfe, Montréal, QC H3A 3L8, Canada",45.5009902,-73.5737518,Montréal,QC
95,95,CEA-11456,1717 | BSR | VER | 3206 Rushbrooke,"3206 Rushbrooke, Montréal, QC",H4G 1S7,Level2,45.470829,-73.56525500000002,"1,00 $ (CAD) de l'heure","3206 Rue de Rushbrooke, Verdun, QC H4G 1S7, Canada",45.470729,-73.56520390000001,Verdun,QC
96,96,CEA-11025,821 | BSR | SO | 6000 Laurendeau,"6000 rue Laurendeau, Montréal, QC",H4E 3X4,Level2,45.458143,-73.588273,"1,00 $ (CAD) de l'heure","6000 Rue Laurendeau, Montréal, QC H4E 3X4, Canada",45.4583407,-73.588099,Montréal,QC
97,97,CEA-10166,MRC Charlevoix - Isle-aux-Coudres,"1026, chemin des Coudriers, L'Isle-aux-Coudres, QC",G0A 3J0,Level2,47.419875,-70.384552,"1,00 $ (CAD) de l'heure","1026 Chemin des Coudriers, Saint-Bernard-sur-Mer, QC G0A 3J0, Canada",47.419932200000005,-70.38489279999999,Saint-Bernard-sur-Mer,QC
98,98,CEC-00092,BRCC - St-Hubert - Drummondville,"125 boul. St-Joseph, Drummondville, QC",J2B 7P5,FastDC,45.898911,-72.5257,"10,00 $ (CAD) de l'heure","125 Boulevard Saint-Joseph, Drummondville, QC J2C 2A5, Canada",45.8987811,-72.5254916,Drummondville,QC
99,99,CEC-00108,BRCC - St-Fulgence,"253 Rue du Saguenay, Saint-Fulgence, QC",G0V 1S0,FastDC,48.44941,-70.9023,"10,00 $ (CAD) de l'heure","253 Rue du Saguenay, Saint-Fulgence, QC G0V 1S0, Canada",48.450169,-70.90256610000002,Saint-Fulgence,QC
100,100,CEA-10237,Sur rue - OP - Les Promenades Gatineau,"1100 boulevard Maloney Ouest, Gatineau, QC",J8T 6G3,Level2,45.475865,-75.693477,"1,00 $ (CAD) de l'heure","1100 Boulevard Maloney O, Gatineau, QC J8T 6G3, Canada",45.4756531,-75.6972849,Gatineau,QC
101,101,CEA-358,SHDM - Complexe Chaussegros-De-Léry,"330, rue Champ-de-Mars, Montréal, QC",H2Y 3Z3,Level2,45.509619,-73.55353000000002,"2,50 $ (CAD) par session","330 Rue du Champ de Mars, Montréal, QC H2Y 3Z8, Canada",45.5100013,-73.55362209999998,Montréal,QC
102,102,CEA-10671,FMRL - Éspace René-Levesque,"120 Boulevard Gérard D. Levesque , New Carlisle, QC",G0C 1Z0,Level2,48.009787,-65.32395,"1,00 $ (CAD) de l'heure","120 Boulevard Gérard D. Levesque, New Carlisle, QC G0C 1Z0, Canada",48.0097291,-65.3236831,New Carlisle,QC
103,103,CEA-10524,519 | BSR | PMR | 5465 St-Denis,"5465 rue St-Denis, Montréal, QC",H2J 4B7,Level2,45.529242,-73.594302,"1,00 $ (CAD) de l'heure","5465 Rue Saint-Denis, Montréal, QC H2J 4B7, Canada",45.5295737,-73.59439429999998,Montréal,QC
104,104,CEA-316,CÉGEP de Jonquière,"2505 rue Saint Hubert, Jonquière, QC",G7X 7W2,Level2,48.4042169709854,-71.2455019387782,"2,50 $ (CAD) par session","2505 Rue Saint-Hubert, Jonquière, QC G7X 5M7, Canada",48.4061661,-71.2478375,Jonquière,QC
105,105,CEA-11317,1604 | BSR | LAS | 18 Strathyre,"18 Avenue Strathyre, Montréal, QC",H8R 3P7,Level2,45.426174,-73.659498,"1,00 $ (CAD) de l'heure","18 Avenue Strathyre, LaSalle, QC H8R 3P7, Canada",45.4263445,-73.65970229999998,LaSalle,QC
106,106,CEA-10367,203 | BSR | VSMPE | 7501 rue St-Denis,"7501 rue St-Denis, Montréal, QC",H2R 2E7,Level2,45.540232,-73.620191,"1,00 $ (CAD) de l'heure","7501 Rue Saint-Denis, Montréal, QC H2R 2E7, Canada",45.540237899999994,-73.6202848,Montréal,QC
107,107,CEA-10706,212 | BSR | VSMPE | 4085A Bélanger,"4085 rue Belanger, Montréal, QC",H1X 1B9,Level2,45.56475,-73.58761,"1,00 $ (CAD) de l'heure","4085 Rue Bélanger, Montréal, QC H1X 1B9, Canada",45.5648311,-73.58784859999999,Montréal,QC
108,108,CEA-10530,515 | BSR | PMR | 4801 Papineau,"4801 Avenue Papineau, Montréal, QC",H2H 1V7,Level2,45.534713,-73.57794100000002,"1,00 $ (CAD) de l'heure","4801 Rue Papineau, Montréal, QC H2H 1V7, Canada",45.5348126,-73.57808729999998,Montréal,QC
109,109,CEA-10773,Forestville - Bureau touristique,"228 route 138 Ouest, Forestville, QC",G0T 1E0,Level2,48.726843,-69.09808000000001,"1,00 $ (CAD) de l'heure","228 QC-138, Colombier, QC G0H 1P0, Canada",48.8093277,-69.0256721,Colombier,QC
110,110,CEA-10731,221 | BSR | VSMPE | 2200 Jean-Talon E,"2200 Jean-Talon E, Montréal, QC",H2E 2R1,Level2,45.551248,-73.60377199999998,"1,00 $ (CAD) de l'heure","2200 Rue Jean-Talon Est, Montréal, QC H2E 2R1, Canada",45.550911,-73.6038593,Montréal,QC
111,111,CEA-10538,513 | BSR | PMR | 5030 St-Denis,"5030 St-Denis, Montréal, QC",H2J 2L9,Level2,45.526792,-73.589348,"1,00 $ (CAD) de l'heure","5030 Rue Saint-Denis, Montréal, QC H2J 2L8, Canada",45.5263482,-73.58895890000001,Montréal,QC
112,112,CEA-112,RONA - St-Jérôme,"1025 Jean-Baptiste-Rolland O, St-Jérôme, QC",J7Y 4Y7,Level2,45.767139,-74.019012,"1,00 $ (CAD) de l'heure","1025 Boul Jean-Baptiste-Rolland O, Saint-Jérôme, QC J7Y 4Y7, Canada",45.76670190000001,-74.01864570000001,Saint-Jérôme,QC
113,113,CEA-10705,409 | BSR | MHM | 3450 Ontario,"3450 Ontario, Montréal, QC",H1W 1R2,Level2,45.544099,-73.544871,"1,00 $ (CAD) de l'heure","3450 Rue Ontario E, Montréal, QC H1W 1R2, Canada",45.54366599999999,-73.54477229999998,Montréal,QC
114,114,CEA-387,Ville de Lyster - Caisse Populaire,"635 rue Laurier, Lyster, QC",G0S 1V0,Level2,46.3710879364776,-71.6124014886063,"2,50 $ (CAD) par session","635 Rue Laurier, Lyster, QC G0S 1V0, Canada",46.3711057,-71.61260759999998,Lyster,QC
115,115,CEA-179,1180 | BHR | MN | 4243 de Charleroi : Hôtel de Ville,"4243 rue de Charleroi, Montréal, QC",H1H 5R5,Level2,45.594043,-73.63755,"2,50 $ (CAD) par session","4243 Rue de Charleroi, Montréal-Nord, QC H1H 5R5, Canada",45.5942341,-73.6375814,Montréal-Nord,QC
116,116,CEA-10938,720 | BSR | CDN-NDG | 3165 Côte Ste-Catherine,"3165A Côte Ste-Catherine, Montréal, QC",H3T 1C4,Level2,45.503899,-73.622842,"1,00 $ (CAD) de l'heure","3165 Chemin de la Côte-Sainte-Catherine, Montréal, QC H3T 1C4, Canada",45.503252,-73.62410600000001,Montréal,QC
117,117,CEA-10350,707 | BSR | CDN-NDG | 3506 Lacombe,"3506 ave. Lacombe, Montréal, QC",H3T 1M1,Level2,45.4974,-73.622784,"1,00 $ (CAD) de l'heure","3506 Avenue Lacombe, Montréal, QC H3T 1X5, Canada",45.4973435,-73.6226701,Montréal,QC
118,118,CEA-10803,Longueuil - Parc Michel Chartrand,"1895 rue Adoncour, Longueuil, QC",J4J 5G8,Level2,45.542946,-73.47178000000002,"1,00 $ (CAD) de l'heure","1895 Rue Adoncour, Longueuil, QC J4J 5G8, Canada",45.5435581,-73.4714533,Longueuil,QC
119,119,CEA-10285,401 | BSR | MHM | 4119 Ontario Est,"4119 Rue Ontario E, Montréal, QC",H1V 1J7,Level2,45.55096,-73.540898,"1,00 $ (CAD) de l'heure","4119 Rue Ontario E, Montréal, QC H1V 1J7, Canada",45.5508409,-73.5410833,Montréal,QC
120,120,CEA-025,Drummondville - Stationnement Hériot,"25 rue du Pont, Drummondville, QC",J2C 6B9,Level2,45.885964,-72.488665,"1,00 $ (CAD) de l'heure","25 Rue du Pont, Drummondville, QC J2C, Canada",45.8857295,-72.48845070000002,Drummondville,QC
121,121,CEA-033,282 | BHR | VSMPE | 9235 Papineau : Stade de Soccer de Montréal,"9235 Avenue Papineau, Montréal, QC",H2M 2G5,Level2,45.562243,-73.63818,"2,50 $ (CAD) par session","9235 Rue Papineau, Montréal, QC H2M 2G5, Canada",45.562889500000004,-73.63885450000001,Montréal,QC
122,122,CEC-00057,BRCC - CDSMML - New Richmond,"116 boul. Perron Ouest, New Richmond, QC",G0C 2B0,FastDC,48.161172,-65.85714,"10,00 $ (CAD) de l'heure","116 Boulevard Perron O, New Richmond, QC G0C 2B0, Canada",48.161102,-65.85684810000001,New Richmond,QC
123,123,CEA-11277,Parc régional du Mont-Ham,"103 Route 257 Ouest, Ham-Sud, QC",J0B 3J0,Level2,45.779984,-71.643339,"1,00 $ (CAD) de l'heure","103 QC-257, Weedon, QC J0B 3J0, Canada",45.7750174,-71.6370554,Weedon,QC
124,124,CEA-10493 ,Abbaye de Saint-Benoît-du-Lac,"1 rue Principale, Saint-Benoît-du-Lac, QC",J0B 2M0,Level2,45.167612,-72.27199999999998,"1,00 $ (CAD) de l'heure","1 rue Principale, Saint-Benoît-du-Lac, QC J0B 2M0, Canada",45.16635,-72.271,Saint-Benoît-du-Lac,QC
125,125,CEA-10279,306 | BSR | RPP | 3189 Masson,"3189 Rue Masson , Montréal, QC",H1Y 1Y2,Level2,45.550345,-73.573841,"1,00 $ (CAD) de l'heure","3189 Rue Masson, Montréal, QC H1Y 1Y2, Canada",45.550287100000006,-73.5738282,Montréal,QC
126,126,CEA-10642,Sur Rue - Repentigny - Bibliothèque,"1 Place d'Evry, Repentigny, QC",J6A 8H7,Level2,45.740987,-73.452365,"1,00 $ (CAD) de l'heure","1 Place d'Évry, Repentigny, QC J6A 8H7, Canada",45.7410438,-73.45193499999998,Repentigny,QC
127,127,CEA-10859,111 | BSR | AC | 55 Cremazie O,"55 boul. Crémazie O, Montréal, QC",H2N 1L3,Level2,45.541031,-73.642792,"1,00 $ (CAD) de l'heure","55 Boulevard Crémazie O, Montréal, QC H2N 1L3, Canada",45.5411395,-73.64264200000001,Montréal,QC
128,128,CEC-00063,BRCC - CDSMML - Chandler,"125 boul. René Lévesque Ouest, Chandler, QC",G0C 1K0,FastDC,48.349331,-64.683954,"10,00 $ (CAD) de l'heure","125 Boulevard Rene Levesque O, Chandler, QC G0C 1K0, Canada",48.3492402,-64.6832908,Chandler,QC
129,129,CEC-00069,BRCC - Ville d'Amos,"222, 1ère Avenue Est, Amos, QC",J9T 1H3,FastDC,48.571485,-78.11001800000003,"10,00 $ (CAD) de l'heure","222 1ère Avenue Est,, Amos, Quebec J9T 1H3, Canada",48.5715539,-78.11042309999998,Amos,Qu
130,130,CEA-10993,Municipalité de Saint-Adrien,"1589 Principale, Saint-Adrien, QC",J0A 1C0,Level2,45.8195769,-71.7250025,"1,00 $ (CAD) de l'heure","1589 Rue Principale, Saint-Adrien, QC J0A 1C0, Canada",45.819576899999994,-71.7228138,Saint-Adrien,QC
131,131,CEC-00122,BRCC - Comfort INN / La Cage Mont-Laurier,"700 Boulevard Albiny Paquette, Mont-Laurier, QC",J9L 1L4,FastDC,46.550849,-75.492385,"10,00 $ (CAD) de l'heure","700 Boulevard Albiny Paquette, Mont-Laurier, QC J9L 1L4, Canada",46.5502628,-75.49221469999998,Mont-Laurier,QC
132,132,CEA-10062,St-Hubert - St-Liboire,"1145 rang St-Édouard, St-Liboire, QC",J0H 1R0,Level2,45.688036,-72.805937,"1,00 $ (CAD) de l'heure","1145 Rang Saint-Édouard, Saint-Liboire, QC J0H 1R0, Canada",45.6879781,-72.80655,Saint-Liboire,QC
133,133,CEA-10555,Monit Investments,"1000 Sherbrooke Ouest, Montréal, QC",H3A 3G4,Level2,45.502062,-73.57476,"1,00 $ (CAD) de l'heure","1000 Sherbrooke, Montréal, QC H3A, Canada",45.5027183,-73.57511579999998,Montréal,QC
134,134,CEA-10513,CÉGEP de Granby,"235 Rue Saint-Jacques, Granby, QC",J2G 3N1,Level2,45.399479,-72.72922700000002,"1,00 $ (CAD) de l'heure","235 Rue Saint-Jacques, Granby, QC J2G 3N1, Canada",45.398542600000006,-72.72964929999998,Granby,QC
135,135,CEA-396,St-Paul-de-l'île-aux-Noix - Hôtel de Ville,"959 rue Principale, Île-aux-Noix, QC",J0J 1G0,Level2,45.130837,-73.27736,"2,50 $ (CAD) par session","959 Rue Principale, Île-aux-Noix, QC J0J 1G0, Canada",45.1306336,-73.2771978,Île-aux-Noix,QC
136,136,CEA-10266,FCR - Carrefour Belvédère Sherbrooke,"415 Belvédère Sud, Sherbrooke, QC",J1H 4B7,Level2,45.396182,-71.896072,"1,00 $ (CAD) de l'heure","415 Rue Belvédère S, Sherbrooke, QC J1H 4B7, Canada",45.3961809,-71.89607099999998,Sherbrooke,QC
137,137,CEA-10379,702 | BSR | CDN-NDG | 5252 Sherbrooke O,"5252 Sherbrooke O, Montréal, QC",H4A 3K5,Level2,45.474621,-73.608302,"1,00 $ (CAD) de l'heure","5252 Rue Sherbrooke Ouest, Montréal, QC H4A 3K5, Canada",45.4745826,-73.60823640000001,Montréal,QC
138,138,CEA-10403,Cowansville - Parc centre ville,"175 rue Principale, Cowansville, QC",J2K 3L9,Level2,45.207871,-72.74473,"1,00 $ (CAD) de l'heure","175 Rue Principale, Cowansville, QC J2K 3L9, Canada",45.2082669,-72.7459224,Cowansville,QC
139,139,CEA-10139,Collège Laval,"1275 Avenue du Collège, Laval, QC",H7C 1W8,Level2,45.615499,-73.648099,"2,50 $ (CAD) par session","1275 Avenue du Collège, Laval, QC H7C 1W8, Canada",45.6160494,-73.64818840000001,Laval,QC
140,140,CEC-00061,BRCC - Centre commercial Rivière-du-Loup,"298 Boul. Armand-Thériault, Rivière-du-Loup, QC",G5R 4C2,FastDC,47.825886,-69.5494,"10,00 $ (CAD) de l'heure","298 Boulevard Armand-Thériault, Rivière-du-Loup, QC G5R 4C2, Canada",47.824214899999994,-69.54833529999999,Rivière-du-Loup,QC
141,141,CEA-10623,CSRS - Du Triolet pavillon II,"2965 boul. de L'Université, Sherbrooke, QC",J1K 1W7,Level2,45.382714,-71.945352,"1,00 $ (CAD) de l'heure","2965 Boulevard de l'Université, Sherbrooke, QC J1K 1W7, Canada",45.381417799999994,-71.9461455,Sherbrooke,QC
142,142,CEA-10777,418 | BSR | MHM | 8355 Notre-Dame,"8355 Notre-Dame, Montréal, QC",H1L 3L2,Level2,45.594272,-73.51131600000002,"1,00 $ (CAD) de l'heure","8355 Rue Notre-Dame Est, Montréal, QC H1L 3L2, Canada",45.59445969999999,-73.51147440000001,Montréal,QC
143,143,CEB-10179,Fairmont Le Reine Elizabeth,"900 René-Lévesque Ouest, Montréal, QC",H3B 4A5,Level2,45.501350402832,-73.5675964355469,"2,50 $ (CAD) par session","900 Boulevard René-Lévesque O, Montréal, QC H3B 1X8, Canada",45.50054180000001,-73.5677628,Montréal,QC
144,144,CEA-10567,1412 | BSR | SLA | 3100 Toupin,"3100 Toupin, Montréal, QC",H4K 2V4,Level2,45.517305,-73.726967,"2,50 $ (CAD) par session","3100 Boulevard Toupin, Saint-Laurent, QC H4K 1Y8, Canada",45.5177172,-73.7268538,Saint-Laurent,QC
145,145,CEB-10058,Ville de Sherbrooke - Grenouillière,"50 rue Meadow, Sherbrooke, QC",J1H 5H9,Level2,45.4034690856934,-71.8907775878906,"1,00 $ (CAD) de l'heure","50 Rue Meadow, Sherbrooke, QC J1H 5N3, Canada",45.4033336,-71.89070009999999,Sherbrooke,QC
146,146,CEC-90004,DCFC - Ottawa - Terry Fox Park’N Ride,"195 Roland Michener Dr, Kanata, ON",K2T 1G7,FastDC,45.308005,-75.909408,"17,00 $ (CAD) de l'heure","195 Roland Michener Dr, Kanata, ON K2T 1G7, Canada",45.30844200000001,-75.90965,Kanata,ON
147,147,CEA-11215,824 | BSR | SO | 1306 Olier,"1306 Rue Olier, Montréal, QC",H3C 1W4,Level2,45.490105,-73.55968,"1,00 $ (CAD) de l'heure","1306 Rue Olier, Montréal, QC H3C 1W4, Canada",45.4912749,-73.5582632,Montréal,QC
148,148,CEA-10025,605 | BSR | VM | 265 St-Antoine,"301 rue St-Antoine Ouest, Montréal, QC",H2Z 1H5,Level2,45.503582,-73.56019,"1,00 $ (CAD) de l'heure","301 Rue Saint-Antoine O, Montréal, QC H2Z 1H5, Canada",45.50361480000001,-73.56053840000001,Montréal,QC
149,149,CEA-10246,MRC Coaticook - Saint-Malo,"224 route 253 Sud, Saint-Malo, QC",J0B 2Y0,Level2,45.197645,-71.500718,"1,00 $ (CAD) de l'heure","224 QC-253, Saint-Malo, QC J0B 2Y0, Canada",45.19717439999999,-71.50064559999998,Saint-Malo,QC
150,150,CEB-10114,St-Hubert - Candiac,"107 chemin St-François Xavier, Candiac, QC",J5R 3X8,Level2,45.3802871704102,-73.5348815917969,"1,00 $ (CAD) de l'heure","107 Chemin Saint-François-Xavier, Candiac, QC J5R 3X8, Canada",45.3802767,-73.534543,Candiac,QC
151,151,CEA-10563,Nouveau Monde Graphite - Hotel-Motel Central,"510 Rue Brassard, Saint-Michel-des-Saints, QC",J0K 3B0,Level2,46.6775,-73.9171,"1,00 $ (CAD) de l'heure","510 Rue Brassard, Saint-Michel-des-Saints, QC J0K 3B0, Canada",46.6775878,-73.91669840000002,Saint-Michel-des-Saints,QC
152,152,CEA-094,282 | BHR | VSMPE | 9235 Papineau : Stade de Soccer de Montréal,"9235 Avenue Papineau, Montréal, QC",H2M 2G5,Level2,45.562243,-73.63818,"2,50 $ (CAD) par session","9235 Rue Papineau, Montréal, QC H2M 2G5, Canada",45.562889500000004,-73.63885450000001,Montréal,QC
153,153,CEA-10743,711 | BSR | CDN-NDG | 6190 Monkland,"6190 Monkland, Montréal, QC",H4B 2X6,Level2,45.469082,-73.628219,"1,00 $ (CAD) de l'heure","6190 Av de Monkland, Montréal, QC H4B 1G4, Canada",45.4693195,-73.62822,Montréal,QC
154,154,CEA-10692,409 | BSR | MHM | 3450 Ontario,"3450 Ontario, Montréal, QC",H1W 1R2,Level2,45.544099,-73.544871,"1,00 $ (CAD) de l'heure","3450 Rue Ontario E, Montréal, QC H1W 1R2, Canada",45.54366599999999,-73.54477229999998,Montréal,QC
155,155,CEA-459,Zoo de Granby - Stationnement,"1050 boul. David-Bouchard Nord, Granby, QC",J2G 5P3,Level2,45.4202333,-72.7240667,"1,00 $ (CAD) de l'heure","1050 Boulevard David-Bouchard N, Granby, QC J2H 0Y6, Canada",45.4197916,-72.72398299999998,Granby,QC
156,156,CEA-10229,Bureau d'accueil touristique - MRC Coaticook,"137 Rue Michaud, Coaticook, QC",J1A 1A9,Level2,45.147142,-71.806976,"1,00 $ (CAD) de l'heure","137 Rue Michaud, Coaticook, QC J1A 1A9, Canada",45.146716,-71.806624,Coaticook,QC
157,157,CEA-10699,215 | BSR | VSMPE | 7140 Bordeaux,"7140 Rue de Bordeaux, Montréal, QC",H2E 2M3,Level2,45.549552,-73.60523,"1,00 $ (CAD) de l'heure","7140 Rue de Bordeaux, Montréal, QC H2E 2M3, Canada",45.5494502,-73.6052291,Montréal,QC
158,158,CEA-213,St-Hubert - Granby,"940 Rue Principale,, Granby, QC",J2G 2Z4,Level2,45.4142914023398,-72.75529988343241,"1,00 $ (CAD) de l'heure","940 Rue Principale, Granby, QC J2G 2Z4, Canada",45.414576000000004,-72.7552085,Granby,QC
159,159,CEA-10113,Valleyfield - Hôtel de Ville,"61, Ste-Cécile, Salaberry-de-Valleyfield, QC",J6T 1L8,Level2,45.255475,-74.131591,"1,00 $ (CAD) de l'heure","61 Rue Sainte Cécile, Salaberry-de-Valleyfield, QC J6T, Canada",45.2554986,-74.13172490000001,Salaberry-de-Valleyfield,QC
160,160,CEA-10344,307 | BSR | RPP | 1031 St-Zotique,"1031 Rue Saint-Zotique E, Montréal, QC",H2S 1N1,Level2,45.539199,-73.605241,"1,00 $ (CAD) de l'heure","1031 Rue Saint-Zotique E, Montréal, QC H2S 1N1, Canada",45.5390674,-73.60546109999999,Montréal,QC
161,161,CEA-350,SHDM - Complexe Chaussegros-De-Léry,"330, rue Champ-de-Mars, Montréal, QC",H2Y 3Z3,Level2,45.509619,-73.55353000000002,"2,50 $ (CAD) par session","330 Rue du Champ de Mars, Montréal, QC H2Y 3Z8, Canada",45.5100013,-73.55362209999998,Montréal,QC
162,162,CEA-444,St-Hubert - Drummondville-Sud,"2875 Boulevard St-Joseph, Drummondville, QC",J2B 7P5,Level2,45.866345,-72.47799,"1,00 $ (CAD) de l'heure","2875 Boulevard Saint-Joseph, Drummondville, QC J2B 7P5, Canada",45.866141999999996,-72.47805110000002,Drummondville,QC
163,163,CEA-239,MTQ - Aire de service du Point-du-Jour,"250 autoroute Félix-Leclerc, Lavaltrie, QC",J0K 2Z0,Level2,45.889457,-73.35058000000002,"1,00 $ (CAD) de l'heure","250 Autoroute 40, Lavaltrie, QC J5T 3K4, Canada",45.891226,-73.34926999999998,Lavaltrie,QC
164,164,CEA-10688,219 | BSR | VSMPE | 1210 Villeray,"1210 Villeray, Montréal, QC",H2R 1J7,Level2,45.547077,-73.61853,"1,00 $ (CAD) de l'heure","1210 Rue Villeray, Montréal, QC H2R 1J7, Canada",45.54683350000001,-73.61840140000001,Montréal,QC
165,165,CEA-10730,Pavillon Forêt Montmorency - Bâtiment principal,"Km 103, route 175, Québec, QC",G0R 3R0,Level2,47.322028,-71.148046,"1,00 $ (CAD) de l'heure","Pavillon Abitibi-Price, 2405 Rue de la Terrasse, Québec, QC G1V 0A6, Canada",46.780449,-71.2795821,2405 Rue de la Terrasse,Qu
166,166,CEB-10077,Aéroport de Montréal – Courte Durée,"975 Roméo-Vachon Nord, Dorval, QC",H4Y 1H1,Level2,45.457315,-73.749285,"2,50 $ (CAD) par session","975 Boulevard Roméo-Vachon N, Dorval, QC H4Y, Canada",45.4579798,-73.7493257,Dorval,QC
167,167,CEA-118,FCR - SAQ Lorraine,"85 Boulevard de Gaulle, Lorraine, QC",J6Z 3R8,Level2,45.665319,-73.78185,"1,00 $ (CAD) de l'heure","85 Boulevard de Gaulle, Lorraine, QC J6Z 3R8, Canada",45.6652456,-73.78212049999998,Lorraine,QC
168,168,CEA-11125,Municipalité de Ham-Sud,"9, chemin Gosford Sud, Ham-Sud, QC", J0B 3J0,Level2,45.756181,-71.601158,"1,00 $ (CAD) de l'heure","9 Chemin Gosford S, Weedon, QC J0B 3J0, Canada",45.754081299999996,-71.601599,Weedon,QC
169,169,CEA-10734,814 | BSR | SO | 2415 Allard,"2415 Allard, Montréal, QC",H4E 2L5,Level2,45.450914,-73.594951,"1,00 $ (CAD) de l'heure","2415 Rue Allard, Montréal, QC H4E 2L3, Canada",45.451234899999996,-73.5934408,Montréal,QC
170,170,CEA-10075,Québec - Bibliothèque Félix Leclerc,"1465 Rue de l'Innovation, Québec, QC",G3K 2P9,Level2,46.8575865847027,-71.4197460061168,"1,00 $ (CAD) de l'heure","1465 Rue de l'Innovation, Québec, QC G3K 2P9, Canada",46.857614,-71.420524,Québec,QC
171,171,CEA-10416,Ville de St-Jérôme - Stationnement de la Gare (P9),"280 Rue Latour, Saint-Jérôme, QC",J7Z 2G7,Level2,45.776087,-73.999825,"1,00 $ (CAD) de l'heure","280 Rue Latour, Saint-Jérôme, QC J7Z 5H6, Canada",45.7737749,-73.9997851,Saint-Jérôme,QC
172,172,CEB-10078,St-Hubert - Saint-Eustache,"555 boul. Arthur-Sauvé, St-Eustache, QC",J7P 4X5,Level2,45.573974609375,-73.913932800293,"1,00 $ (CAD) de l'heure","555 Boulevard Arthur-Sauvé, Saint-Eustache, QC J7P 4X5, Canada",45.57428059999999,-73.91380199999998,Saint-Eustache,QC
173,173,CEA-11199,528 | BSR | PMR | 640 Prince-Arthur O,"640 Rue Prince Arthur O, Montréal, QC", H2X 1T9,Level2,45.507682,-73.57831800000002,"1,00 $ (CAD) de l'heure","640 Rue Prince Arthur O, Montréal, QC H2X 1T9, Canada",45.5078384,-73.57824649999998,Montréal,QC
174,174,CEA-10151,1491 | BHR | SLA | 2385 Thimens : Complexe Sportif St-Laurent,"2385 Boulevard Thimens, St-Laurent, QC",H4R 1T4,Level2,45.507344,-73.702415,"2,50 $ (CAD) par session","2385 Boulevard Thimens, Saint-Laurent, QC H4R 1T4, Canada",45.5077114,-73.7033951,Saint-Laurent,QC
175,175,CEA-11443,1202 | BSR | SLE | 5275 Lavoisier,"5275 Lavoisier, Montréal, QC",H1R 1J5,Level2,45.590009,-73.606516,"1,00 $ (CAD) de l'heure","5275 Boulevard Lavoisier, Saint-Léonard, QC H1R 1J5, Canada",45.59019310000001,-73.6077622,Saint-Léonard,QC
176,176,CEA-10685,RIO - Parc Olympique 2,"3200 Rue Viau, Montréal, QC",H1V 3J3,Level2,45.560388,-73.55135,"2,50 $ (CAD) par session","3200 Rue Viau, Montréal, QC H1V 3J3, Canada",45.55976210000001,-73.5514912,Montréal,QC
177,177,CEA-10332,404 | BSR | MHM | 3622 Hochelaga,"3622 Rue Hochelaga, Montréal, QC",H1W 1J1,Level2,45.547475,-73.550661,"1,00 $ (CAD) de l'heure","3622 Rue Hochelaga, Montréal, QC H1W 1J1, Canada",45.547396899999995,-73.5507923,Montréal,QC
178,178,CEA-11068,Desjardins - Saguenay-Saint-Laurent,"11, rue Sirois, Les Escoumins, QC",G0T 1K0,Level2,48.350265,-69.40805999999999,"1,00 $ (CAD) de l'heure","11 Rue Sirois, Les Escoumins, QC G0T 1K0, Canada",48.350015500000005,-69.40774619999999,Les Escoumins,QC
179,179,CEA-10215,Université du Québec - Stationnement Odéon,"465 rue de la Chapelle, Québec, QC",G1K 6N4,Level2,46.814063,-71.221063,"1,00 $ (CAD) de l'heure","465 Rue de la Chapelle, Québec, QC G1K 6N4, Canada",46.8139674,-71.2210741,Québec,QC
180,180,CEA-435,Ste-Brigide-d'Iberville - Centre Municipal,"510 9e rang, Sainte-Brigide-D'Iberville, QC",J0J 1X0,Level2,45.321901,-73.06614,"2,50 $ (CAD) par session","510 9e Rang, Sainte-Brigide-d'Iberville, QC J0J 1X0, Canada",45.32190670000001,-73.06614259999998,Sainte-Brigide-d'Iberville,QC
181,181,CEA-10479,Sur Rue - Mont Tremblant - Parc Daniel-Lauzon,"268 rue du Couvent, Mont Tremblant, QC",J8E 1K6,Level2,46.195234,-74.623006,"1,00 $ (CAD) de l'heure","268 Rue du Couvent, Mont-Tremblant, QC J8E 1K6, Canada",46.19472649999999,-74.62374229999999,Mont-Tremblant,QC
182,182,CEA-10515,Rivière-Bleue - Hôtel de Ville,"32 rue des Pins E, Rivière-Bleue, QC",G0L 2B0,Level2,47.43572,-69.042077,"1,00 $ (CAD) de l'heure","32 Rue des Pins E, Rivière-Bleue, QC G0L 2B0, Canada",47.4356933,-69.04239890000001,Rivière-Bleue,QC
183,183,CEA-10250,Exo - Stationnement incitatif Sainte-Julie,"180 boul. Armand Frappier, Sainte-Julie, QC",J3E 0C7,Level2,45.582114,-73.32496400000002,"2,50 $ (CAD) par session","180 Boulevard Armand-Frappier, Sainte-Julie, QC J3E 2N9, Canada",45.578899299999996,-73.349953,Sainte-Julie,QC
184,184,CEC-00029,BRCC - Ville de St-Jean-sur-Richelieu (Rona),"85 Av Conrad-Gosselin, St-Jean-sur-Richelieu, QC",J2X 0A1,FastDC,45.324694,-73.248365,"10,00 $ (CAD) de l'heure","85 Rue Conrad-Gosselin, Saint-Jean-sur-Richelieu, QC J2X 5L6, Canada",45.3240158,-73.24903559999998,Saint-Jean-sur-Richelieu,QC
185,185,CEA-068,1481 | BHR | SLA | 1375 Grenet : Centre des Loisirs,"1375 Rue Grenet, Montreal, QC",H4L 5K3,Level2,45.5149537151104,-73.6910204074096,"2,50 $ (CAD) par session","1375 Rue Grenet, Saint-Laurent, QC H4L 5K3, Canada",45.5143342,-73.6909283,Saint-Laurent,QC
186,186,CEA-148,1780 | BHR | VER | 201 Berlioz : La Station,"201 rue Berlioz, Ile des Soeurs, QC",H3E 1C1,Level2,45.459993,-73.54423,"2,50 $ (CAD) par session","201 Rue Berlioz, Verdun, QC H3E 1C1, Canada",45.4601535,-73.5445178,Verdun,QC
187,187,CEA-10830,711 | BSR | CDN-NDG | 6190 Monkland,"6190 Monkland, Montréal, QC",H4B 2X6,Level2,45.469082,-73.628219,"1,00 $ (CAD) de l'heure","6190 Av de Monkland, Montréal, QC H4B 1G4, Canada",45.4693195,-73.62822,Montréal,QC
188,188,CEA-10741,727 | BSR | CDN-NDG | 6521 Décarie,"6521 boul. Decarie, Montréal, QC",H3W 3E3,Level2,45.491264,-73.645548,"1,00 $ (CAD) de l'heure","6521 Boulevard Décarie, Montréal, QC H3W 3E3, Canada",45.4912864,-73.64545720000001,Montréal,QC
189,189,CEA-11446,1202 | BSR | SLE | 5275 Lavoisier,"5275 Lavoisier, Montréal, QC",H1R 1J5,Level2,45.590009,-73.606516,"1,00 $ (CAD) de l'heure","5275 Boulevard Lavoisier, Saint-Léonard, QC H1R 1J5, Canada",45.59019310000001,-73.6077622,Saint-Léonard,QC
190,190,CEA-469,St-Hubert - Richelieu,"2330 Chemin des Patriotes, Richelieu, QC",J3L 6M7,Level2,45.413805,-73.240305,"1,00 $ (CAD) de l'heure","2330 Chemin des Patriotes, Richelieu, QC J3L 6M7, Canada",45.4135152,-73.24018869999998,Richelieu,QC
191,191,CEA-11102,Ville de Sainte-Pie - Parc Euclide-Lacasse,"146 Sainte-Cécile, Saint-Pie, QC",J0H 1W0,Level2,45.507768,-72.901844,"1,00 $ (CAD) de l'heure","146 Rue Sainte-Cécile, Saint-Pie, QC J0H 1W0, Canada",45.5082554,-72.9015057,Saint-Pie,QC
192,192,CEA-11270,826 | BSR | SO | 2855 Centre,"2855 rue du Centre, Montréal, QC",H4C 3B4,Level2,45.476501,-73.57244,"1,00 $ (CAD) de l'heure","2855 Rue Centre, Montréal, QC H3K 3C4, Canada",45.4765656,-73.57280159999998,Montréal,QC
193,193,CEA-423,Racine - Caisse populaire Desjardins,"145, route 222, Racine, QC",J0E 1Y0,Level2,45.503649,-72.24831,"2,50 $ (CAD) par session","145 QC-222, Racine, QC J0E 1Y0, Canada",45.503713299999994,-72.24829090000001,Racine,QC
194,194,CEA-455,Ville de Blainville - Bibliothèque Paul-Mercier,"1003 rue de la Mairie, Blainville, QC",J7C 3C7,Level2,45.681191,-73.8752,"2,50 $ (CAD) par session","1003 Rue de la Mairie, Blainville, QC J7C, Canada",45.680708,-73.87440720000001,Blainville,QC
195,195,CEA-11232,829 | BSR | SO | 472 Ste-Madeleine,"472 Rue Sainte Madeleine, Montréal, QC",H3K 2K7,Level2,45.480554,-73.555775,"1,00 $ (CAD) de l'heure","472 Rue Sainte Madeleine, Montréal, QC H3K 2K7, Canada",45.480514,-73.5554071,Montréal,QC
196,196,CEA-11279,Laval - Caserne 5,"7900 Av Marcel-Villeneuve, Laval, QC",H7A 4B2,Level2,45.67215,-73.59837900000002,"1,00 $ (CAD) de l'heure","7900 Avenue Marcel-Villeneuve, Laval, QC H7A 4B2, Canada",45.6718713,-73.59864759999998,Laval,QC
197,197,CEA-10111,St-Hubert - Dolbeau-Mistassini,"1780 Rue des Mélèzes, Dolbeau-Mistassini, QC",G8L 3M8,Level2,48.881311,-72.23492900000002,"1,00 $ (CAD) de l'heure","1780 Rue des Mélèzes, Dolbeau-Mistassini, QC G8L 3M8, Canada",48.88141659999999,-72.2349435,Dolbeau-Mistassini,QC
198,198,CEA-10648,812 | BSR | SO | 2441 Notre-Dame,"2441A Notre-Dame, Montréal, QC",H3J 1N6,Level2,45.483512,-73.57468100000001,"1,00 $ (CAD) de l'heure","2441 Rue Notre-Dame Ouest, Montréal, QC H3J 1N6, Canada",45.48338769999999,-73.57467489999998,Montréal,QC
199,199,CEA-193,"Hydro-Québec - St-Jérôme, 333 Jean-Paul-Hogue","333 Jean-Paul-Hogue, St-Jérôme, QC",J7Z 6Y3,Level2,45.761751,-73.997054,"2,50 $ (CAD) par session","333 Boul Jean Paul Hogue, Saint-Jérôme, QC J7Z 7A5, Canada",45.7625278,-73.9980218,Saint-Jérôme,QC
200,200,CEA-10890,St-Hubert - Mascouche,"241 Montée Masson, Mascouche, QC",J7K 3B4,Level2,45.7265585103775,-73.61695999999998,"1,00 $ (CAD) de l'heure","241 Montée Masson, Mascouche, QC J7K 3B4, Canada",45.726516700000005,-73.6167368,Mascouche,QC
201,201,CEA-10649,310 | BSR | RPP | 7085 St-Laurent,"7085A St-Laurent, Montréal, QC",H2S 3E3,Level2,45.533914,-73.616473,"1,00 $ (CAD) de l'heure","7085 Boul St-Laurent, Montréal, QC H2S 3E3, Canada",45.53404099999999,-73.6165121,Montréal,QC
202,202,CEB-10001,Groupe Mercille - Complexe St-Charles,"1111 Rue Saint-Charles Ouest, Longueuil, QC",J4K 5G4,Level2,45.52631,-73.519977,"2,50 $ (CAD) par session","1111 Rue Saint-Charles Ouest, Longueuil, QC J4K 5G4, Canada",45.526051200000005,-73.5200578,Longueuil,QC
203,203,CEA-11130,734 | BSR | CDN-NDG | 5160 Decarie,"5160 Decarie, Montréal, QC",H3X 2H9,Level2,45.483925,-73.630404,"1,00 $ (CAD) de l'heure","5160 Boulevard Décarie, Montréal, QC H3X 2H9, Canada",45.4839956,-73.6309651,Montréal,QC
204,204,CEA-10460,Sainte-Catherine-de-la-Jacques-Cartier,"2 rue Laurier, Sainte-Catherine-de-la-Jacques-Cartier, QC",G3N 1W1,Level2,46.844901,-71.617479,"1,00 $ (CAD) de l'heure","2 Rue Laurier, Sainte-Catherine-de-la-Jacques-Cartier, QC G3N 1W1, Canada",46.8448518,-71.61743539999998,Sainte-Catherine-de-la-Jacques-Cartier,QC
205,205,CEB-10021,METRO - Fleury,"1745 rue Fleury Est, Montréal, QC",H2C 1T3,Level2,45.5666999816895,-73.6542129516602,"1,00 $ (CAD) de l'heure","1745 Rue Fleury E, Montréal, QC H2C 1T3, Canada",45.566800799999996,-73.65473850000001,Montréal,QC
206,206,CEA-10497,CÉGEP Garneau,"1160 Boul. de L'Entente, Québec, QC",G1S 4S3,Level2,46.793442,-71.264124,"1,00 $ (CAD) de l'heure","1160 Boulevard de l'Entente, Québec, QC G1S, Canada",46.797331299999996,-71.2557801,Québec,QC
207,207,CEA-223,Monsieur Muffler,"4747 boul. Lévesque Est, Laval, QC",H7C 1M9,Level2,45.6074590854918,-73.645373876313,"2,50 $ (CAD) par session","4747 Boulevard Lévesque E, Laval, QC H7C 1M9, Canada",45.60760429999999,-73.6452683,Laval,QC
208,208,CEA-10548,DGI - Complexe Desjardins,"1251 rue Jeanne-Mance, Montréal, QC",H2X 3Y2,Level2,45.507924,-73.56414000000002,"1,00 $ (CAD) de l'heure","1251 Rue Jeanne-Mance, Montréal, QC H2X, Canada",45.5070394,-73.5651293,Montréal,QC
209,209,CEB-10159,FCR - Carrefour St-David Ouest,"2837 avenue St-David, Québec, QC",G1C 0J3,Level2,46.865528,-71.216852,"1,00 $ (CAD) de l'heure","2837 Avenue St David, Québec, QC G1C 0J3, Canada",46.86537,-71.2170749,Québec,QC
210,210,CEA-10141,Collège de Rosemont,"6400 16e avenue, Montréal, QC",H1X 2S9,Level2,45.5571391156207,-73.5811485717582,"1,00 $ (CAD) de l'heure","6400 16e Avenue, Montréal, QC H1X 1H2, Canada",45.557444,-73.582376,Montréal,QC
211,211,CEA-249,MTQ - Aire de service de la Baie-de-Maskinongé,"161 Autoroute 40, Maskinongé, QC",J0K 1N0,Level2,46.195441,-73.00448,"1,00 $ (CAD) de l'heure","161 Autoroute 40, Maskinongé, QC J0K 1N0, Canada",46.1952467,-73.0028944,Maskinongé,QC
212,212,CEA-10667,CÉGEP de Saint-Laurent,"625 Avenue Sainte-Croix, Montréal, QC",H4L 3X7,Level2,45.512792,-73.672624,"1,00 $ (CAD) de l'heure","625 Avenue Sainte-Croix, Saint-Laurent, QC H4L 3X7, Canada",45.512070200000004,-73.67186149999998,Saint-Laurent,QC
213,213,CEA-10549,Ville de Boucherville - Complexe aquatique L-E-Cor,"490 chemin du Lac, Boucherville, QC",J4B 6X3,Level2,45.603497,-73.450265,"1,00 $ (CAD) de l'heure","490 Chemin du Lac, Boucherville, QC J4B 6X3, Canada",45.60372460000001,-73.45117909999998,Boucherville,QC
214,214,CEA-11482,1101 | BSR | MN | 5195 Alfred,"5195 Alfred, Montréal, QC",H1G 5B9,Level2,45.60424,-73.628686,"1,00 $ (CAD) de l'heure","5195 Boul Henri-Bourassa E, Montréal-Nord, QC H1G 2S7, Canada",45.603979700000004,-73.6289452,Montréal-Nord,QC
215,215,CEB-10147,FCR - Carrefour St-David Est,"2040 Blanche-Lamontagne, Beauport, QC",G1C 0H8,Level2,46.865435,-71.21259,"1,00 $ (CAD) de l'heure","2040 Rue Blanche-Lamontagne, Québec, QC G1C, Canada",46.8650143,-71.21278459999998,Québec,QC
216,216,CEA-11299,1718 | BSR | VER | 97 Rue de l'Église,"97 Rue de l'Église, Verdun, QC",H4G 2M1,Level2,45.462773,-73.56532299999998,"1,00 $ (CAD) de l'heure","97 Rue de l'Église, Verdun, QC H4G 2M1, Canada",45.4628285,-73.5653286,Verdun,QC
217,217,CEA-10674,280 | BHR | VSMPE | 7501 François Perrault : Maison du citoyen,"7501 François Perrault, Montréal, QC",H2A 1M1,Level2,45.56153,-73.60127,"2,50 $ (CAD) par session","7501 Rue François-Perrault, Montréal, QC H2A 1M1, Canada",45.5617131,-73.60121240000001,Montréal,QC
218,218,CEA-10636,Saint-Joseph de Sorel - Centre Recréatif Aussant (Aréna),"105 rue Saint-Joseph, Saint-Joseph-de-Sorel, QC",J3R 3P1,Level2,46.045036,-73.12939,"1,00 $ (CAD) de l'heure","105 Rue Saint-Joseph, Saint-Joseph-de-Sorel, QC J3R 3P1, Canada",46.044299200000005,-73.12782419999998,Saint-Joseph-de-Sorel,QC
219,219,CEA-10820,721 | BSR | CDN-NDG | 2885 Barclay,"2885 Barclay, Montréal, QC", H3S 2J6,Level2,45.509323,-73.62974799999998,"1,00 $ (CAD) de l'heure","2885 Avenue Barclay, Montréal, QC H3S 1J7, Canada",45.509576200000005,-73.62969269999998,Montréal,QC
220,220,CEA-10159,Piopolis - Édifice Municipal,"403 rue principale, Piopolis, QC",G0Y 1H0,Level2,45.4858244762823,-70.9075709325409,"1,00 $ (CAD) de l'heure","403 Rue Principale, Piopolis, QC G0Y 1H0, Canada",45.485787200000004,-70.9074061,Piopolis,QC
221,221,CEB-10050,RONA - Brossard,"9800 boul. Leduc, Brossard, QC",J4Y 0B4,Level2,45.438304901123,-73.4407501220703,"1,00 $ (CAD) de l'heure","9800 Boulevard Leduc, Brossard, QC J4Z, Canada",45.43776769999999,-73.44007629999999,Brossard,QC
222,222,CEA-11144,117 | BSR | AC | 1545 Henri-Bourassa,"1545 Henri Bourassa, Montréal, QC",H3M 1X7,Level2,45.538203,-73.678763,"1,00 $ (CAD) de l'heure","1545 Boul Henri-Bourassa O, Montréal, QC H3M 1X6, Canada",45.5381839,-73.6790046,Montréal,QC
223,223,CEC-00051,BRCC - CDSMML - Mont-Louis,"19, 1ere Avenue Ouest, St-Maxime-du-Mont-Louis, QC",G0E 1T0,FastDC,49.228842,-65.735214,"10,00 $ (CAD) de l'heure","19-A, 1re Av O, Mont-Louis, QC G0E 1T0, Canada",49.228640500000004,-65.7350048,1re Av O,Mo
224,224,CEA-10347 ,707 | BSR | CDN-NDG | 3506 Lacombe,"3506 ave. Lacombe, Montréal, QC",H3T 1M1,Level2,45.4974,-73.622784,"1,00 $ (CAD) de l'heure","3506 Avenue Lacombe, Montréal, QC H3T 1X5, Canada",45.4973435,-73.6226701,Montréal,QC
225,225,CEA-10065,St-Hubert - Chambly,"3200 boul. Fréchette, Chambly, QC",J3L 6Z6,Level2,45.431142,-73.30393000000002,"1,00 $ (CAD) de l'heure","3200 Boulevard Fréchette, Chambly, QC J3L 6Z6, Canada",45.43119739999999,-73.30373359999999,Chambly,QC
226,226,CEA-10341,201 | BSR | VSMPE | 622 Jarry O,"622 rue Jarry O, Montréal, QC",H3N 1G2,Level2,45.531226,-73.635681,"1,00 $ (CAD) de l'heure","622 Rue Jarry O, Montréal, QC H3N 1G2, Canada",45.531056899999996,-73.63560799999998,Montréal,QC
227,227,CEA-092,FCR - Carrefour du Plateau des Grives,"205-219 boul. du Plateau, Gatineau, QC",J9J 0N4,Level2,45.431995,-75.78066,"1,00 $ (CAD) de l'heure","205 Boul du Plateau, Gatineau, QC J9A 0N4, Canada",45.4345374,-75.78027409999999,Gatineau,QC
228,228,CEA-11092,Municipalité de Saint-Liguori,"371 rue Héroux, Saint-Liguori, QC",J0K 2X0,Level2,46.010386,-73.569419,"1,00 $ (CAD) de l'heure","371 Rue Héroux, Saint-Liguori, QC J0K 2X0, Canada",46.0105689,-73.569131,Saint-Liguori,QC
229,229,CEA-10877,416 | BSR | MHM | 5750 Pierre de Coubertin,"5750 Pierre de Coubertin, Montréal, QC",H1N 2K9,Level2,45.571544,-73.540664,"1,00 $ (CAD) de l'heure","5750 Avenue Pierre-De Coubertin, Montréal, QC H1N 1R4, Canada",45.571661,-73.54074279999998,Montréal,QC
230,230,CEB-10105,Ville de Sherbrooke - Centre récréatif Rock Forest,"5265 Rue de Gaspé , Sherbrooke, QC",J1N 2C8,Level2,45.368833,-71.98971999999998,"1,00 $ (CAD) de l'heure","5265 Rue de Gaspé, Sherbrooke, QC J1N 2C8, Canada",45.368181,-71.990492,Sherbrooke,QC
231,231,CEA-10827,820 | BSR | SO | 3041 Notre-Dame,"3041 Notre-Dame , Montréal, QC",H4C 2J2,Level2,45.480917,-73.578968,"1,00 $ (CAD) de l'heure","3041 Rue Notre-Dame Ouest, Montréal, QC H4C 1N9, Canada",45.480889000000005,-73.57878889999998,Montréal,QC
232,232,CEA-10710 ,Boisbriand - Bibliothèque,"901 Boulevard de la Grande-Allée, Boisbriand, QC",J7G 1W6,Level2,45.61248,-73.83964,"1,00 $ (CAD) de l'heure","901 Boulevard de la Grande-Allée, Boisbriand, QC J7G 1W6, Canada",45.612355900000004,-73.83951009999998,Boisbriand,QC
233,233,CEA-10520,513 | BSR | PMR | 5030 St-Denis,"5030 St-Denis, Montréal, QC",H2J 2L9,Level2,45.526792,-73.589348,"1,00 $ (CAD) de l'heure","5030 Rue Saint-Denis, Montréal, QC H2J 2L8, Canada",45.5263482,-73.58895890000001,Montréal,QC
234,234,CEA-10536,1709 | BSR | VER | 300 Chemin du golf,"300 Chemin du golf, Verdun, QC",H3E 1A8,Level2,45.467528,-73.548338,"1,00 $ (CAD) de l'heure","300 Chemin du Golf, Verdun, QC H3E, Canada",45.4681021,-73.5489762,Verdun,QC
235,235,CEA-392,MRC de la Vallée-du-Richelieu - McMasterville,"255 boul. Laurier, McMasterville, QC",J3G 0B7,Level2,45.5471853577976,-73.22975519014359,"2,50 $ (CAD) par session","255 Boulevard Laurier, McMasterville, QC J3G, Canada",45.5470145,-73.2297863,McMasterville,QC
236,236,CEA-266,Bentall Kennedy - Tour KPMG,"600 Boulevard de Maisonneuve Ouest, Montréal, QC",H3A 0A3,Level2,45.504524,-73.5705,"2,50 $ (CAD) par session","600 Boulevard de Maisonneuve O, Montréal, QC H3A 3J2, Canada",45.5041009,-73.5710036,Montréal,QC
237,237,CEA-394,UQAC Chicoutimi,"555 Boulevard de l'Université, Chicoutimi, QC",G7H 2B1,Level2,48.420502,-71.05121,"1,00 $ (CAD) de l'heure","Pavillon principal, 555 Boulevard de l'Université, Chicoutimi, QC G7H 2B1, Canada",48.419902799999996,-71.05239980000002,555 Boulevard de l'Université,Ch
238,238,CEA-11508,Caisse Desjardins du Haut-Saint-Laurent,"4b Bridge , Ormstown, QC",J0S 1K0,Level2,45.121098,-73.989749,"0,00 $ (CAD) de l'heure","4 Rue Bridge, Ormstown, QC J0S 1K0, Canada",45.120943,-73.9909097,Ormstown,QC
239,239,CEC-00034,BRCC - St-Hubert - Ste-Marie,"655 Route Cameron, Ste-Marie-de-Beauce, QC",G6E 3V7,FastDC,46.46915,-71.037935,"10,00 $ (CAD) de l'heure","655 Route Cameron, Sainte-Marie, QC G6E 3V7, Canada",46.46930039999999,-71.0383258,Sainte-Marie,QC
240,240,CEC-00170,BRCC - Saint-Apollinaire - Shell,"390 rue Laurier, Saint-Apollinaire, QC",G0S 2E0,FastDC,46.617886,-71.514123,"10,00 $ (CAD) de l'heure","390 Rue Laurier, Saint-Apollinaire, QC G0S 2E0, Canada",46.6173819,-71.5147958,Saint-Apollinaire,QC
241,241,CEA-10418,Ville de St-Jérôme - Stationnement de la Gare (P9),"280 Rue Latour, Saint-Jérôme, QC",J7Z 2G7,Level2,45.774675,-73.999749,"1,00 $ (CAD) de l'heure","280 Rue Latour, Saint-Jérôme, QC J7Z 5H6, Canada",45.7737749,-73.9997851,Saint-Jérôme,QC
242,242,CEA-10917,Laval - Terrasse du Souvenir,"1333 Boulevard Chomedey, Laval, QC",H7V 3Y1,Level2,45.550974,-73.7435,"1,00 $ (CAD) de l'heure","1333 Boulevard Chomedey, Laval, QC H7V 3Y1, Canada",45.5505888,-73.74384609999998,Laval,QC
243,243,CEA-10043,614 | BSR | VM | 1455 Metcalfe,"1550 rue Metcalfe, Montréal, QC",H3A 3L8,Level2,45.501087,-73.573064,"1,00 $ (CAD) de l'heure","1550 Rue Metcalfe, Montréal, QC H3A 3L8, Canada",45.5009902,-73.5737518,Montréal,QC
244,244,CEC-00086,BRCC - Les Promenades Gatineau,"1100 boulevard Maloney Ouest, Gatineau, QC",J8T 6G3,FastDC,45.47466,-75.69651,"10,00 $ (CAD) de l'heure","1100 Boulevard Maloney O, Gatineau, QC J8T 6G3, Canada",45.4756531,-75.6972849,Gatineau,QC
245,245,CEA-10829,811 | BSR | SO | 123 Courcelle,"123 Courcelle, Montréal, QC",H4C 3B4,Level2,45.471563,-73.586178,"1,00 $ (CAD) de l'heure","123 Rue de Courcelle, Montréal, QC H4C 3B4, Canada",45.471630700000006,-73.5861051,Montréal,QC
246,246,CEA-10939,712 | BSR | CDN-NDG |1070 Decarie,"1070 Decarie, Montréal, QC",H4A 3H9,Level2,45.472083,-73.60405300000002,"1,00 $ (CAD) de l'heure","1070 Boulevard Décarie, Montréal, QC H4A 3H9, Canada",45.47205750000001,-73.6040663,Montréal,QC
247,247,CEA-11106,Municipalité de Saint-Sébastien,"582 Rue Principale, St-Sébastien, QC",G0Y 1M0,Level2,45.782361,-70.969773,"1,00 $ (CAD) de l'heure","582 Rue Principale, Saint-Sébastien-de-Frontenac, QC G0Y 1M0, Canada",45.7821145,-70.96965460000001,Saint-Sébastien-de-Frontenac,QC
248,248,CEA-11017,Coq Rôti - l'Étape,"10002 route 175, Stoneham-et-Tewkesbury, QC",G3C 2N9,Level2,47.559526,-71.23096,"1,00 $ (CAD) de l'heure","10002 QC-175, Sainte-Brigitte-de-Laval, QC G0A 3K0, Canada",47.160795799999995,-71.25656649999998,Sainte-Brigitte-de-Laval,QC
249,249,CEA-184,981 | BHR | RDP-PAT | 12125 Notre-Dame E : Centre communautaire Roussin,"12125 Rue Notre-Dame est, Montréal, QC",H1B 2Y9,Level2,45.641308,-73.49087,"2,50 $ (CAD) par session","12125 Rue Notre-Dame Est, Pointe-aux-Trembles, QC H1B 2Y9, Canada",45.640987200000005,-73.49022120000001,Pointe-aux-Trembles,QC
250,250,CEA-11417,Desjardins - Piemont Laurentien,"1638, rue Notre-Dame, L'Ancienne-Lorette, QC",G2E 3B6,Level2,46.80174,-71.36075,"1,00 $ (CAD) de l'heure","1638 Rue Notre Dame, L'Ancienne-Lorette, QC G2E 3B4, Canada",46.801589299999996,-71.3608208,L'Ancienne-Lorette,QC
251,251,CEC-00125,BRCC - Ville de Nicolet,"Place du 21 Mars, Nicolet, QC",J3T 1E9,FastDC,46.225743,-72.617323,"10,00 $ (CAD) de l'heure","Place du 21 Mars, Nicolet, QC J3T, Canada",46.2255321,-72.6175743,Nicolet,QC
252,252,CEA-10639,808 | BSR | SO | 6098 Mazarin,"6098 Rue Mazarin, Montréal, QC",H4E 2X2,Level2,45.456132,-73.60130799999997,"1,00 $ (CAD) de l'heure","6098 Rue Mazarin, Montréal, QC H4E 2X2, Canada",45.456127,-73.601213,Montréal,QC
253,253,CEB-10139,Exo - Gare Blainville,"38 boul. de la Seigneurie Est, Blainville, QC",J7C 3V5,Level2,45.672534942627,-73.8641891479492,"2,50 $ (CAD) par session","38 Boulevard de la Seigneurie E, Blainville, QC J7C 3V5, Canada",45.67104310000001,-73.8653223,Blainville,QC
254,254,CEA-10445,Laval - Arena Martin St-Louis,"655 Rue Sylvie, Laval, QC",H7X 2X2,Level2,45.52582,-73.803802,"1,00 $ (CAD) de l'heure","655 Rue Sylvie, Laval, QC H7X 2X2, Canada",45.526138,-73.803485,Laval,QC
255,255,CEA-10723,Saint-Polycarpe - Parc FX Prieur,"1263 Chemin Élie-Auclair, Saint-Polycarpe, QC",J0P 1X0,Level2,45.30196,-74.30371,"1,00 $ (CAD) de l'heure","1263 Chemin Élie-Auclair, Saint-Polycarpe, QC J0P 1X0, Canada",45.3018469,-74.3040247,Saint-Polycarpe,QC
256,256,CEA-10947,318 | BSR | RPP | 2919 Bellechasse,"2919 Bellechasse, Montréal, QC",H2G 1N8,Level2,45.551265,-73.584723,"1,00 $ (CAD) de l'heure","2919 Rue de Bellechasse, Montréal, QC H1Y 1K1, Canada",45.5516476,-73.5851119,Montréal,QC
257,257,CEB-10154,FCR - Carrefour du Versant Ouest,"1500 boul. Gréber, Gatineau, QC",J8R 0E1,Level2,45.503821,-75.67809799999998,"1,00 $ (CAD) de l'heure","1500 Boulevard Gréber, Gatineau, QC J8R 0E1, Canada",45.50340429999999,-75.6783615,Gatineau,QC
258,258,CEA-10550,Ville de Témiscouata-sur-le-Lac,"737 Rue Commerciale N, Témiscouata-sur-le-Lac, QC",G0L 1E0,Level2,47.679095,-68.87661,"1,00 $ (CAD) de l'heure","737 Rue Commerciale N, Témiscouata-sur-le-Lac, QC G0L 1E0, Canada",47.6789249,-68.8764625,Témiscouata-sur-le-Lac,QC
259,259,CEA-10615,412 | BSR | MHM | 2222 Valois,"2222 Avenue Valois , Montréal, QC",H1W 3M5,Level2,45.548361,-73.54682700000002,"1,00 $ (CAD) de l'heure","2222 Avenue Valois, Montréal, QC H1W 3M5, Canada",45.548027000000005,-73.54698540000001,Montréal,QC
260,260,CEA-11353,233 | BSR | VSMPE | 7707 Shelley,"7707 Shelley, Montréal, QC",H2A 1H6,Level2,45.562171,-73.604732,"1,00 $ (CAD) de l'heure","7707 Avenue Shelley, Montréal, QC H2A 1H6, Canada",45.562410899999996,-73.6048151,Montréal,QC
261,261,CEA-11379,Marché Val-Morin ,"6100, Morin , Val-Morin, QC",J0T 2R0,Level2,46.0068151,-74.1887027,"1,00 $ (CAD) de l'heure","6100 Rue Morin, Val-Morin, QC J0T 2R0, Canada",46.0066922,-74.18759229999998,Val-Morin,QC
262,262,CEA-296,MRC du Haut-Richelieu,"380 4e avenue, Saint-Jean-sur-Richelieu, QC",J2X 1W9,Level2,45.306833,-73.23268,"2,50 $ (CAD) par session","380 4e Avenue, Saint-Jean-sur-Richelieu, QC J2X 1W9, Canada",45.3067358,-73.23277329999998,Saint-Jean-sur-Richelieu,QC
263,263,CEA-11280,Stationnement de l'Église Saint-Maurice,"389 Rue Wilfrid, Bois-des-Filion, QC J6Z 1E6, Bois-des-Filion, QC", QC,Level2,45.667833,-73.75528,"1,00 $ (CAD) de l'heure","389 Rue Wilfrid, Bois-des-Filion, QC J6Z 1E6, Canada",45.6678535,-73.75529519999998,Bois-des-Filion,QC
264,264,CEA-10088,St-Eugène - Dépanneur Général,"10 rue Principale, St-Eugène-De-Ladrière, QC",G0L 1P0,Level2,48.253224,-68.794738,"2,50 $ (CAD) par session","10 Rue Principale, Saint-Fabien, QC G0L 2Z0, Canada",48.2531385,-68.7953155,Saint-Fabien,QC
265,265,CEA-10319,St-Jean-sur-Richelieu - Entrée Nord,"6 rue Foch, St-Jean-sur-Richelieu, QC",J3B 2A2,Level2,45.309441,-73.251869,"1,00 $ (CAD) de l'heure","6 Rue Foch, Saint-Jean-sur-Richelieu, QC J3B 2A2, Canada",45.309162,-73.2517682,Saint-Jean-sur-Richelieu,QC
266,266,CEA-10313,CCSSJ,"201 Boulevard Armand-Frappier , Sainte-Julie, QC",J3E 0C7,Level2,45.58317,-73.32812,"1,00 $ (CAD) de l'heure","201 Boulevard Armand-Frappier, Sainte-Julie, QC J3E 0C7, Canada",45.58160609999999,-73.3300574,Sainte-Julie,QC
267,267,CEB-10027,RONA - Québec,"1500 rue Bouvier, Québec, QC",G2K 1N8,Level2,46.827658,-71.29339399999998,"1,00 $ (CAD) de l'heure","1500 Rue Bouvier, Québec, QC G2K 1N8, Canada",46.828261600000005,-71.2930989,Québec,QC
268,268,CEA-10388,Aéroport de Montréal – Courte Durée,"975 Roméo-Vachon Nord, Dorval, QC",H4Y 1H1,Level2,45.457315,-73.749285,"2,50 $ (CAD) par session","975 Boulevard Roméo-Vachon N, Dorval, QC H4Y, Canada",45.4579798,-73.7493257,Dorval,QC
269,269,CEC-00014,BRCC - Carrefour La Pocatière,"625 1ère rue, La Pocatière, QC",G0R 1Z0,FastDC,47.364068,-70.03577,"10,00 $ (CAD) de l'heure","625 1re Rue Poiré, La Pocatière, QC G0R 1Z0, Canada",47.3639963,-70.03693799999999,La Pocatière,QC
270,270,CEA-10434,Collège de Bois-de-Boulogne,"10500 Avenue de Bois de Boulogne, Montréal, QC",H4N 1L4,Level2,45.536413,-73.67444,"1,00 $ (CAD) de l'heure","10500 Ave de Bois-de-Boulogne, Montreal, QC H4N 1K7, Canada",45.536392,-73.67406290000001,Montreal,QC
271,271,CEC-00096,BRCC - Roulez Électrique,"519 rue des Volontaires, Trois-Rivières, QC",G9A 2E7,FastDC,46.343128,-72.545265,"10,00 $ (CAD) de l'heure","519 Rue des Volontaires, Trois-Rivières, QC G9A 2E7, Canada",46.34311020000001,-72.54535870000001,Trois-Rivières,QC
272,272,CEA-10177,618 | BSR | VM | 254 Boisbriand,"270 rue de Boisbriand, Montréal, QC",H2X 3C5,Level2,45.512673,-73.562445,"1,00 $ (CAD) de l'heure","270 Rue de Boisbriand, Montréal, QC H2X, Canada",45.51290849999999,-73.5622645,Montréal,QC
273,273,CEC-00044,BRCC - Ville de Rimouski,"50 rue Saint-Germain Ouest, Rimouski, QC",G5L 4B5,FastDC,48.45068758,-68.52971682,"10,00 $ (CAD) de l'heure","50 Rue Saint Germain O, Rimouski, QC G5L 4B5, Canada",48.4506368,-68.53045829999999,Rimouski,QC
274,274,CEA-10810,319 | BSR | RPP | 6501 St-Laurent,"6501A St-Laurent, Montréal, QC",H2S 3C4,Level2,45.530366,-73.608664,"1,00 $ (CAD) de l'heure","6501 Boul St-Laurent, Montréal, QC H2S 3C4, Canada",45.530368200000005,-73.6085368,Montréal,QC
275,275,CEA-10120,St-Hubert - Berthierville,"1091 av Gilles-Villeneuve, Berthierville, QC",J0K 1A0,Level2,46.0883518674836,-73.19668449073791,"1,00 $ (CAD) de l'heure","1091 Avenue Gilles Villeneuve, Berthierville, QC J0K 1A0, Canada",46.08838430000001,-73.19698369999998,Berthierville,QC
276,276,CEA-10614,816 | BSR | SO | 1660 Centre,"1660A Centre, Montréal, QC",H3K 1G4,Level2,45.484356,-73.559822,"1,00 $ (CAD) de l'heure","1660 Rue Centre, Montréal, QC H3K 1H6, Canada",45.484206799999995,-73.5595833,Montréal,QC
277,277,CEA-10089,St-Hubert - Joliette,"111 Rue de la Visitation, Joliette, QC",J6E 4N4,Level2,46.0405088182952,-73.4477368220902,"1,00 $ (CAD) de l'heure","111 Rue de la Visitation, Saint-Charles-Borromée, QC J6E 4N4, Canada",46.0404427,-73.44794859999999,Saint-Charles-Borromée,QC
278,278,CEA-11245,228 | BSR | VSMPE | 405 Guizot,"405 Rue Guizot E, Montréal, QC",H2P 1M8,Level2,45.543788,-73.632248,"1,00 $ (CAD) de l'heure","405 Rue Guizot E, Montréal, QC H2P 1M8, Canada",45.543828999999995,-73.63228659999999,Montréal,QC
279,279,CEA-10269,1702 | BSR | VER | 5000 Wellington,"5000 Rue Wellington, Verdun, QC",H4G 1X9,Level2,45.455871,-73.567543,"1,00 $ (CAD) de l'heure","5000 Rue Wellington, Verdun, QC H4G 1Y1, Canada",45.4557625,-73.5672441,Verdun,QC
280,280,CEA-11613,Desjardins - Fleuve et des Montagnes (Charlevoix),"2, rue Saint-Jean-Baptiste Baie-Saint-Paul, Charlevoix, QC",G3Z 1L7,Level2,47.44132,-70.50537,"1,00 $ (CAD) de l'heure","2 Rue Saint Jean Baptiste, Baie-Saint-Paul, QC G3Z 1L7, Canada",47.4415475,-70.5054033,Baie-Saint-Paul,QC
281,281,CEA-10801,Longueuil - Bibliotheque Greenfield Park,"225 Rue Empire, Greenfield Park, QC",J4V 1T9,Level2,45.491908,-73.48819,"1,00 $ (CAD) de l'heure","225 Rue Empire, Greenfield Park, QC J4V 1T9, Canada",45.4916279,-73.4877406,Greenfield Park,QC
282,282,CEA-10629,Saint-Joseph de Sorel - Montcalm et Élizabeth,"700 Rue Montcalm, Saint-Joseph-de-Sorel, QC",J3R 1C9,Level2,46.042519,-73.12531,"1,00 $ (CAD) de l'heure","700 Rue Montcalm, Saint-Joseph-de-Sorel, QC J3R 1C9, Canada",46.042523100000004,-73.1257318,Saint-Joseph-de-Sorel,QC
283,283,CEA-408,Henryville - Hôtel de Ville,"165 rue de l’Église, Henryville, QC",J0J 1E0,Level2,45.13682,-73.19249,"1,00 $ (CAD) de l'heure","165 Rue de l'Église, Henryville, QC J0J 1E0, Canada",45.1367967,-73.1923691,Henryville,QC
284,284,CEA-10454,801 | BSR | SO | 3451 St-Jacques,"3451 Rue Saint-Jacques, Montréal, QC",H4C 1H2,Level2,45.48193,-73.582383,"1,00 $ (CAD) de l'heure","3451 Rue Saint-Jacques, Montréal, QC H4C 1H2, Canada",45.4822301,-73.58218719999998,Montréal,QC
285,285,CEA-90004,Curbside - Ottawa - Ben Franklin Place,"101 Centrepointe Dr, Nepean, ON",K2G 5K7,Level2,45.344254,-75.760625,"4,00 $ (CAD) par session","101 Centrepointe Dr, Nepean, ON K2G 0B5, Canada",45.344431400000005,-75.7630379,Nepean,ON
286,286,CEA-10304,Rivière-du-Loup - Tourisme Rivière-du-Loup,"189 boul. de l’Hôtel-de-Ville, Rivière-du-Loup, QC",G5R 5C4,Level2,47.8298697546843,-69.5452771951066,"2,50 $ (CAD) par session","189 Boulevard de l'Hôtel de Ville, Rivière-du-Loup, QC G5R 5C4, Canada",47.8299047,-69.54483370000001,Rivière-du-Loup,QC
287,287,CEA-10566,220 | BSR | VSMPE | 7151 St-Dominique,"7151A St-Dominique, Montréal, QC",H2R 1X3,Level2,45.535353,-73.61758,"1,00 $ (CAD) de l'heure","7151 Rue Saint-Dominique, Montréal, QC H2R 1X3, Canada",45.535179,-73.6173677,Montréal,QC
288,288,CEA-10755,102 | BSR | AC | 1100 Fleury,"1100 rue Fleury, Montréal, QC",H2C 1P9,Level2,45.558804,-73.65865500000002,"1,00 $ (CAD) de l'heure","1100 Rue Fleury E, Montréal, QC H2C 1P9, Canada",45.558618,-73.658333,Montréal,QC
289,289,CEA-90029,St-Hubert - Casselman,"16, Industriel , Casselman, ON",K0A 1M0,Level2,45.305306,-75.080258,"1,00 $ (CAD) de l'heure","16 Industriel St, Casselman, ON K0A 1M0, Canada",45.30530050000001,-75.08049609999998,Casselman,ON
290,290,CEA-10845,111 | BSR | AC | 55 Cremazie O,"55 boul. Crémazie O, Montréal, QC",H2N 1L3,Level2,45.541031,-73.642792,"1,00 $ (CAD) de l'heure","55 Boulevard Crémazie O, Montréal, QC H2N 1L3, Canada",45.5411395,-73.64264200000001,Montréal,QC
291,291,CEA-11180,Centre culturel St-Benoit,"9175 Rue Dumouchel, Mirabel, QC",J7N 2S2,Level2,45.5666744,-74.0968151,"1,00 $ (CAD) de l'heure","9175 Rue Dumouchel, Mirabel, QC J7N 2S2, Canada",45.566674400000004,-74.0968151,Mirabel,QC
292,292,CEA-215,FCR - Carrefour St-David Ouest,"2837 avenue St-David, Québec, QC",G1C 0J3,Level2,46.865528,-71.216852,"1,00 $ (CAD) de l'heure","2837 Avenue St David, Québec, QC G1C 0J3, Canada",46.86537,-71.2170749,Québec,QC
293,293,CEA-10880,516 | BSR | PMR | 3620 St-Denis,"3620 St-Denis, Montréal, QC",H2X 3L6,Level2,45.517751,-73.569529,"1,00 $ (CAD) de l'heure","3620 Rue Saint-Denis, Montréal, QC H2X 3L7, Canada",45.517817,-73.56995490000001,Montréal,QC
294,294,CEA-11211,729 | BSR | CDN-NDG | 2405 Cote Ste-Catherine,"2405 Chemin de la Côte-Sainte-Catherine, Montréal, QC",H3T 1A8,Level2,45.508874,-73.61836,"1,00 $ (CAD) de l'heure","2405 Chemin de la Côte-Sainte-Catherine, Montréal, QC H3T 1A8, Canada",45.5097386,-73.619582,Montréal,QC
295,295,CEA-10578,313 | BSR | RPP | 6036 St-Hubert,"6036 St-Hubert, Montréal, QC",H2S 2L7,Level2,45.534474,-73.59958,"1,00 $ (CAD) de l'heure","6036 Rue St-Hubert, Montréal, QC H2S 2L7, Canada",45.534389000000004,-73.59970799999998,Montréal,QC
296,296,CEA-365,Drummondville - Maison des arts Desjardins,"175 Ringuet, Drummondville, QC",J2C 2P7,Level2,45.877,-72.501,"1,00 $ (CAD) de l'heure","175 Rue Ringuet, Drummondville, QC J2C 2P7, Canada",45.877275899999994,-72.50065090000001,Drummondville,QC
297,297,CEA-10697,408 | BSR | MHM | 1870 Davidson,"1870 Davidson, Montréal, QC",H1W 2Y6,Level2,45.542656,-73.545168,"1,00 $ (CAD) de l'heure","1870 Rue Davidson, Montréal, QC H1W 2Y6, Canada",45.5423324,-73.54523809999998,Montréal,QC
298,298,CEA-242,Ste-Marcelline - Maison de la Culture,"520 rue Principale, Sainte-Marcelline-de-Kildare, QC",J0K 2Y0,Level2,46.117694,-73.5996,"2,50 $ (CAD) par session","520 Rue Principale, Sainte-Marcelline-de-Kildare, QC J0K, Canada",46.11768970000001,-73.5996881,Sainte-Marcelline-de-Kildare,QC
299,299,CEA-10585,522 | BSR | PMR | 4490 Fabre,"4490 Rue Fabre, Montréal, QC",H2J 3V3,Level2,45.531321,-73.575622,"1,00 $ (CAD) de l'heure","4490 Rue Fabre, Montréal, QC H2J 3V3, Canada",45.5312697,-73.5756427,Montréal,QC
300,300,CEA-367,1881 | BHR | PIRO | 4600 des Cageux : Parc Grier,"4600 rue des Cageux, Montréal, QC",H9J 3R4,Level2,45.458325,-73.88109,"2,50 $ (CAD) par session","4600 Rue des Cageux, Pierrefonds, QC H9J 3R4, Canada",45.4584725,-73.8813825,Pierrefonds,QC
301,301,CEA-11185,Stationnement Westminster Nord ,"72-94 ave Westminster Nord, Montreal-West , QC",H4X 1Z2,Level2,45.453166,-73.64679100000002,"1,00 $ (CAD) de l'heure","72 Avenue Westminster N, Montréal-Ouest, QC H4X 1Z2, Canada",45.453230600000005,-73.6465995,Montréal-Ouest,QC
302,302,CEA-10669,Amherst - 124 rue St-Louis,"124 Rue Saint Louis, Amherst, QC",J0T 2L0,Level2,46.010045,-74.76384,"2,50 $ (CAD) par session","124 Rue Saint Louis, Amherst, QC J0T 2L0, Canada",46.0101202,-74.7636784,Amherst,QC
303,303,CEA-11099,St-Hubert - Roland-Therrien,"1901 boul. Roland-Therrien, Longueuil, QC",J4N 1A3,Level2,45.5380458651501,-73.4764380904841,"1,00 $ (CAD) de l'heure","1901 Boulevard Roland-Therrien, Longueuil, QC J4N 1A3, Canada",45.537776,-73.476401,Longueuil,QC
304,304,CEA-274,1680 | BHR | LAS | 7644 Édouard : Centre Henri-Lemieux,"7644 Rue Édouard, Lasalle, QC",H9P 1T3,Level2,45.430676,-73.59388100000002,"2,50 $ (CAD) par session","7644 Rue Édouard, LaSalle, QC H8P 1T3, Canada",45.4307021,-73.59418659999999,LaSalle,QC
305,305,CEA-10540,509 | BSR | PMR | 1330 Mont-Royal,"1330 Mont-Royal, Montréal, QC",H2J 3P5,Level2,45.530447,-73.577343,"1,00 $ (CAD) de l'heure","1330 Boulevard du Mont-Royal, Outremont, QC H2V, Canada",45.511396399999995,-73.6040385,Outremont,QC
306,306,CEA-10673,Terrebonne - Parc Philippe-Villeneuve,"6741 Boulevard Laurier, Terrebonne, QC",J7M 1H1,Level2,45.763464,-73.723582,"1,00 $ (CAD) de l'heure","6741 Boulevard Laurier, Terrebonne, QC J7M 1H1, Canada",45.7635184,-73.7235556,Terrebonne,QC
307,307,CEA-11487,Desjardins - CdS Centre-ville de Quebec,"150,rue Marie-de-l'Incarnation, Québec, QC",G1N 4G8,Level2,46.80931,-71.24686,"1,00 $ (CAD) de l'heure","150 Rue Marie-de-l'Incarnation, Québec, QC G1N 4G8, Canada",46.80893320000001,-71.24667769999998,Québec,QC
308,308,CEA-10108,St-Hubert - Lachine,"665 32e Avenue, Lachine, QC",H8T 3G6,Level2,45.441233,-73.69317,"1,00 $ (CAD) de l'heure","665 32e Avenue, Lachine, QC H8T 3G6, Canada",45.4412063,-73.6929385,Lachine,QC
309,309,CEA-11322,1604 | BSR | LAS | 18 Strathyre,"18 Avenue Strathyre, Montréal, QC",H8R 3P7,Level2,45.426174,-73.659498,"1,00 $ (CAD) de l'heure","18 Avenue Strathyre, LaSalle, QC H8R 3P7, Canada",45.4263445,-73.65970229999998,LaSalle,QC
310,310,CEC-90001,DCFC - Ottawa - 141 Clarence St,"141 Clarence St, Ottawa, ON",K1N 7E5,FastDC,45.429826,-75.691315,"17,00 $ (CAD) de l'heure","141 Clarence St, Ottawa, ON K1N 5P9, Canada",45.4298831,-75.6914199,Ottawa,ON
311,311,CEB-10019,St-Hubert - Pointe-aux-Trembles,"12575 rue Sherbrooke Est, Pointe-aux-Trembles, QC",H1B 1C8,Level2,45.6504936218262,-73.5116729736328,"1,00 $ (CAD) de l'heure","12575 Rue Sherbrooke E, Pointe-aux-Trembles, QC H1B 1C8, Canada",45.6504564,-73.51221640000001,Pointe-aux-Trembles,QC
312,312,CEA-10928,101 | BSR | AC | 10490 Lajeunesse,"10490 Lajeunesse, Montréal, QC",H3J 2E1,Level2,45.554181,-73.664827,"1,00 $ (CAD) de l'heure","10490 Rue Lajeunesse, Montréal, QC H3L 2E5, Canada",45.55407,-73.66486090000001,Montréal,QC
313,313,CEB-10083,Exo - Terminus Sainte-Thérèse,"116 rue Turgeon, Ste-Thérèse, QC",J7E 3H9,Level2,45.6356925964355,-73.8364562988281,"2,50 $ (CAD) par session","116 Rue Turgeon, Sainte-Thérèse, QC J7E 3H8, Canada",45.635584,-73.8363897,Sainte-Thérèse,QC
314,314,CEA-11217,731 | BSR | CDN-NDG | 5600 Côte-des-Neiges,"5600 Chemin de la Côte-des-Neiges, Montréal, QC",H3T 1Z1,Level2,45.497777,-73.62566600000002,"1,00 $ (CAD) de l'heure","5600 Chemin de la Côte-des-Neiges, Montréal, QC H3T 1Z1, Canada",45.49746620000001,-73.6261036,Montréal,QC
315,315,CEA-10505,Municipalité de Wotton - Hôtel de Ville,"396 Rue Mgr L'Heureux, Wotton , QC",J0A 1N0,Level2,45.736191,-71.809893,"1,00 $ (CAD) de l'heure","396 Rue Monseigneur l'Heureux, Wotton, QC J0A 1N0, Canada",45.7360107,-71.81060790000001,Wotton,QC
316,316,CEB-10151,FCR - SAQ Jean-Talon,"7205 Boulevard Viau, Montréal, QC",H1S 0C1,Level2,45.575329,-73.58381999999997,"1,00 $ (CAD) de l'heure","7205 Boulevard Viau, Saint-Léonard, QC H1S 1K6, Canada",45.575325899999996,-73.58402690000001,Saint-Léonard,QC
317,317,CEC-00045,BRCC - Aire de service - Melbourne,"1035 Rte 243, Melbourne, QC",J0B 2B0,FastDC,45.63602,-72.14407299999998,"10,00 $ (CAD) de l'heure","1035 QC-243, Melbourne, QC J0B 2B0, Canada",45.6360599,-72.1442891,Melbourne,QC
318,318,CEA-10401,Lac Simon - Hôtel de ville,"849 Chemin du Tour du Lac, Lac Simon, QC",J0V 1E0,Level2,45.907585,-75.093144,"1,00 $ (CAD) de l'heure","849 Chemin du Tour du Lac, Chénéville, QC J0V 1E0, Canada",45.908567,-75.0931746,Chénéville,QC
319,319,CEA-499,Brossard - Centre communautaire Nathalie-Croteau ,"2210 rue André, Brossard, QC",J4Z 2Z8,Level2,45.478584,-73.46287,"1,00 $ (CAD) de l'heure","Ctre Communautaire Nathalie-Croteau, 2210 Rue André, Brossard, QC J4Z 2Z8, Canada",45.4785874,-73.462665,2210 Rue André,Br
320,320,CEA-044,Ville de Boucherville - Bibliothèque Montarville,"501 Chemin du Lac, Boucherville, QC",J4B 6V6,Level2,45.604502,-73.449438,"1,00 $ (CAD) de l'heure","501 Chemin du Lac, Boucherville, QC J4B 6V6, Canada",45.6044616,-73.4488276,Boucherville,QC
321,321,CEA-507,Roberval - Hôtel de Ville - Public,"851 Boul. St-Joseph, Roberval, QC",G8H 2L6,Level2,48.518258,-72.22229899999998,"1,00 $ (CAD) de l'heure","851 Boulevard Saint-Joseph, Roberval, QC G8H 2L6, Canada",48.51830890000001,-72.22213370000001,Roberval,QC
322,322,CEB-10104,METRO - Sainte-Thérèse,"214 boul. René-A.-Robert, Sainte-Thérèse, QC",J7E 4L2,Level2,45.645435333252,-73.81883239746091,"1,00 $ (CAD) de l'heure","214 Boulevard René-A.-Robert, Sainte-Thérèse, QC J7E 4L2, Canada",45.6457537,-73.8183066,Sainte-Thérèse,QC
323,323,CEA-10039,Dorval - Complexe sportif,"1295 Avenue Dawson, Dorval, QC",H9S 1Y4,Level2,45.442673,-73.75442,"1,00 $ (CAD) de l'heure","1295 Avenue Dawson, Dorval, QC H9S 1Y3, Canada",45.44297539999999,-73.75401819999998,Dorval,QC
324,324,CEA-10654,320 | BSR | RPP | 3810 Rosemont,"3810 boul. Rosemont, Montréal, QC",H1X 2P6,Level2,45.5578,-73.576045,"1,00 $ (CAD) de l'heure","3810 Boulevard Rosemont, Montréal, QC H1X 1L4, Canada",45.5578734,-73.575942,Montréal,QC
325,325,CEA-11078,Desjardins - CdS Metabetchouan,"110, rue Saint-André, Métabetchouan--Lac-à-la-Croix, QC",G8G 1V7,Level2,48.4261,-71.87298,"1,00 $ (CAD) par session","110 Rue Saint André, Métabetchouan-Lac-à-la-Croix, QC G8G 1V7, Canada",48.42646679999999,-71.87308370000001,Métabetchouan-Lac-à-la-Croix,QC
326,326,CEA-11300,115 | BSR | AC | 10305 St-Laurent,"10305 St-Laurent, Montréal, QC",H3L 2M3,Level2,45.548862,-73.664778,"1,00 $ (CAD) de l'heure","10305 Boul St-Laurent, Montréal, QC H3L 2M3, Canada",45.548894399999995,-73.66496020000001,Montréal,QC
327,327,CEA-042,Ville de Blainville - Centre récréoaquatique,"190 rue Marie-Chapleau, Blainville, QC",J7C 3B5,Level2,45.6666605172286,-73.8853072559253,"2,50 $ (CAD) par session","190 Rue Marie Chapleau, Blainville, QC J7C, Canada",45.666831200000004,-73.88488620000001,Blainville,QC
328,328,CEA-015,FCR - Carrefour du Plateau des Grives,"205-219 boul. du Plateau, Gatineau, QC",J9J 0N4,Level2,45.432234,-75.77986999999997,"1,00 $ (CAD) de l'heure","205 Boul du Plateau, Gatineau, QC J9A 0N4, Canada",45.4345374,-75.78027409999999,Gatineau,QC
329,329,CEC-00190,BRCC - Rawdon Shell,"3515 Rue Queen, Rawdon, QC",J0K 1S0,FastDC,46.039266,-73.702637,"10,00 $ (CAD) de l'heure","3515 Rue Queen, Rawdon, QC J0K 1S0, Canada",46.039070200000005,-73.70277990000001,Rawdon,QC
330,330,CEA-10441,Bromont - Aréna John-Savage,"20, rue John-Savage, Bromont, QC",J2L 1E7,Level2,45.317579,-72.651045,"1,00 $ (CAD) de l'heure","20 Rue John-Savage, Bromont, QC J2L 2K5, Canada",45.317361600000005,-72.65119849999998,Bromont,QC
331,331,CEA-10596,106 | BSR | AC | 780 Fleury,"1780 Fleury, Montréal, QC",H2C 1T4,Level2,45.567582,-73.653615,"1,00 $ (CAD) de l'heure","1780 Rue Fleury E, Montréal, QC H2C 3E4, Canada",45.567422799999996,-73.6535553,Montréal,QC
332,332,CEA-10198,604 | BSR | VM | 163 St-Antoine,"115 rue St-Antoine Ouest, Montréal, QC",H2Z 1X8,Level2,45.505539,-73.55852,"1,00 $ (CAD) de l'heure","115 Rue Saint-Antoine O, Montréal, QC H2Z 1X8, Canada",45.5054528,-73.55869090000002,Montréal,QC
333,333,CEA-463,St-Hubert - Sainte-Adèle,"500 boul. Sainte-Adèle, Sainte-Adèle, QC",J8B 2N1,Level2,45.946289,-74.12683,"1,00 $ (CAD) de l'heure","500 Boulevard de Sainte-Adèle, Sainte-Adèle, QC J8B 2N2, Canada",45.9464803,-74.12707209999998,Sainte-Adèle,QC
334,334,CEA-314,Ste-Adèle - Parc Claude-Henri-Grignon,"999 Boulevard Ste Adèle, Sainte-Adèle, QC",J8B 2N4,Level2,45.951406,-74.13368,"2,50 $ (CAD) par session","999 Boulevard de Sainte-Adèle, Sainte-Adèle, QC J8B 2N4, Canada",45.95116729999999,-74.1335601,Sainte-Adèle,QC
335,335,CEA-014,CSRS - Centre du 24-Juin,"639 rue du 24-Juin, Sherbrooke, QC",J1E 1H1,Level2,45.422236,-71.876754,"1,00 $ (CAD) de l'heure","639 Rue du 24-Juin, Sherbrooke, QC J1E 1H1, Canada",45.4227782,-71.88457500000001,Sherbrooke,QC
336,336,CEB-10087,Exo - Gare Saint-Jérôme,"455 boul. Jean-Baptiste-Rolland, St-Jérôme, QC",J7Z 2H5,Level2,45.7734413146973,-73.99957275390629,"2,50 $ (CAD) par session","455 Boul Jean-Baptiste-Rolland E, Saint-Jérôme, QC J7Z 2G9, Canada",45.773525899999996,-73.9978173,Saint-Jérôme,QC
337,337,CEB-10144,FCR - Carrefour St-David Ouest,"2837 avenue St-David, Québec, QC",G1C 0J3,Level2,46.865528,-71.216852,"1,00 $ (CAD) de l'heure","2837 Avenue St David, Québec, QC G1C 0J3, Canada",46.86537,-71.2170749,Québec,QC
338,338,CEA-288,602 | BSR | VM | 1245 St-Urbain,"rue St-Urbain & René-Lévesque, Montréal, QC",H2Z 1A4,Level2,45.507908,-73.56276,"1,00 $ (CAD) de l'heure","Boulevard René-Lévesque O & Rue Saint-Urbain, Montréal, QC H2Z, Canada",45.507678399999996,-73.562505,Montréal,QC
339,339,CEB-10162,CDPQ - Gare Roxboro-Pierrefonds,"11100 boul. Gouin Ouest, Montréal, QC",H8Y 1R5,Level2,45.5100364685059,-73.8109893798828,"2,50 $ (CAD) par session","11100 Boul Gouin O, Pierrefonds, QC H8Y, Canada",45.5107953,-73.8135029,Pierrefonds,QC
340,340,CEA-10574,FCR - Centre St-Charles - Wendy's,"3009 boul. St-Charles, Kirkland, QC",H9H 3B5,Level2,45.44903,-73.85446999999998,"1,00 $ (CAD) de l'heure","3009 Boulevard Saint-Charles, Kirkland, QC H9H 3B5, Canada",45.449005,-73.85488409999998,Kirkland,QC
341,341,CEA-339,"1274, chemin de la Petite-France","1274 chemin de la Petite-France, Noyan, QC",J0J 1B0,Level2,45.064303,-73.29843000000002,"2,50 $ (CAD) par session","1274 Chemin de la Petite France, Saint-Georges-de-Clarenceville, QC J0J 1B0, Canada",45.0649599,-73.2986516,Saint-Georges-de-Clarenceville,QC
342,342,CEA-11136,635 | BSR | VM | 799 De La Commune,"799 De La Commune, Ville-Marie, QC",H3C 1Y1,Level2,45.495752,-73.552719,"1,00 $ (CAD) de l'heure","799 Rue de la Commune O, Montréal, QC H3C 1Y1, Canada",45.495422999999995,-73.55288890000001,Montréal,QC
343,343,CEA-448,Ville de Mont-Tremblant - Complexe Aquatique,"635 rue Cadieux, Mont-Tremblant, QC",J8E 2T4,Level2,46.126568,-74.5825,"2,50 $ (CAD) par session","635 Rue Cadieux, Mont-Tremblant, QC J8E 2T4, Canada",46.1265087,-74.5831192,Mont-Tremblant,QC
344,344,CEA-10104,St-Hubert - Kirkland,"2939 Boul. St-Charles, Kirkland, QC",H9H 3B5,Level2,45.4475362434424,-73.8530058451152,"1,00 $ (CAD) de l'heure","2939 Boulevard Saint-Charles, Kirkland, QC H9H 3B5, Canada",45.4475139,-73.85285689999998,Kirkland,QC
345,345,CEA-10326,704 | BSR | CDN-NDG | 5620 Chemin de la Côte-St-Luc,"5620 Chemin de la Côte-St-Luc, Montréal, QC",H3X 2E3,Level2,45.478208,-73.629689,"1,00 $ (CAD) de l'heure","5620 Chemin de la Côte-Saint-Luc, Montréal, QC H3X 2E3, Canada",45.4780659,-73.62944940000001,Montréal,QC
346,346,CEA-10951,1408 | BSR | SLA | 1555 Édouard-Laurin,"1555 Boulevard Edouard-Laurin, Montréal, QC",H4L 2B2,Level2,45.51282,-73.683041,"1,00 $ (CAD) de l'heure","1555 Boulevard Edouard-Laurin, Saint-Laurent, QC H4L 2B2, Canada",45.513034000000005,-73.68312139999998,Saint-Laurent,QC
347,347,CEA-10501,Ville de St-Eustache,"220 boul. Arthur-Sauvé, Saint-Eustache, QC",J7R 2H9,Level2,45.560884,-73.895641,"1,00 $ (CAD) de l'heure","220 Boulevard Arthur-Sauvé, Saint-Eustache, QC J7R 2H9, Canada",45.5609032,-73.89509319999998,Saint-Eustache,QC
348,348,CEA-10721,1491 | BHR | SLA | 2385 Thimens : Complexe Sportif St-Laurent,"2385 Boulevard Thimens, St-Laurent, QC",H4R 1T4,Level2,45.507344,-73.702415,"2,50 $ (CAD) par session","2385 Boulevard Thimens, Saint-Laurent, QC H4R 1T4, Canada",45.5077114,-73.7033951,Saint-Laurent,QC
349,349,CEA-102,581 | BHR | PMR | 5633 Saint-Dominique : Aréna St-Louis,"5633 rue Saint-Dominique, Montréal, QC",H2T 1V7,Level2,45.527779,-73.59976,"2,50 $ (CAD) par session","5633 Rue Saint-Dominique, Montréal, QC H2T 1V7, Canada",45.5273112,-73.5994845,Montréal,QC
350,350,CEA-10905,Sur Rue - Longueuil - 61 rue St-Charles,"61 Rue Saint-Charles Ouest, Longueuil, QC",J4H 1C5,Level2,45.540188,-73.50893,"1,00 $ (CAD) de l'heure","61 Rue Saint-Charles Ouest, Longueuil, QC J4H 1C6, Canada",45.540294200000005,-73.5088916,Longueuil,QC
351,351,CEA-11051,St-Félicien - 1058 Boul. Sacré Coeur,"1058 Boulevard Sacré Coeur, Saint-Félicien, QC",G8K 1R1,Level2,48.650519,-72.443056,"1,00 $ (CAD) de l'heure","1058 Boulevard du Sacré Coeur, Saint-Félicien, QC G8K 1R1, Canada",48.650580700000006,-72.4429531,Saint-Félicien,QC
352,352,CEA-11047,Ville de La Prairie - Centre multifonctionnel Guy-Dupré,"500, Saint-Laurent , La Prairie, QC",J5R 5X2,Level2,45.414673,-73.498981,"1,00 $ (CAD) de l'heure","500 Rue Saint Laurent, La Prairie, QC J5R 5X2, Canada",45.415398700000004,-73.4984647,La Prairie,QC
353,353,CEA-10666,VIA - Sainte-Foy,"3255 Chemin de la Gare, Québec, QC",G1W 0B7,Level2,46.754535,-71.29836999999998,"2,50 $ (CAD) par session","3255 Chemin de la Gare, Québec, QC G1W 0B7, Canada",46.7543271,-71.2976554,Québec,QC
354,354,CEA-10440,Municipalité de Canton d'Orford,"2304 Chemin du Parc, Orford, QC",J1X 7A2,Level2,45.31099,-72.16565,"1,00 $ (CAD) de l'heure","2304 Chemin du Parc, Orford, QC J1X 7A2, Canada",45.310781799999994,-72.16554740000001,Orford,QC
355,355,CEA-10620,Westmount - Rue Belmont Crescent,"Parc King George, Westmount, QC",H3Y 1Y4,Level2,45.484257,-73.60502,"1,00 $ (CAD) de l'heure","Parc King George, 68 Croissant Belmont, Westmount, QC H3Y 1Y4, Canada",45.484402,-73.604407,68 Croissant Belmont,We
356,356,CEA-10782,604 | BSR | VM | 163 St-Antoine,"155 rue St-Antoine Ouest, Montréal, QC",H2Z 2A7,Level2,45.505046,-73.55894,"1,00 $ (CAD) de l'heure","155 Rue Saint-Antoine O, Montréal, QC H2Z 1H2, Canada",45.505202000000004,-73.5589031,Montréal,QC
357,357,CEA-10527,508 | BSR | PMR | 5271 St-Hubert,"5271 rue St-Hubert, Montréal, QC",H2J 2Y4,Level2,45.530108,-73.590299,"1,00 $ (CAD) de l'heure","5271 Rue St-Hubert, Montréal, QC H2J 2Y4, Canada",45.5302115,-73.59012690000002,Montréal,QC
358,358,CEB-10116,St-Hubert - Pierrefonds,"4700 boul. St-Jean, Pierrefonds, QC",H9H 4B2,Level2,45.4876518249512,-73.84971618652341,"1,00 $ (CAD) de l'heure","4700 Boul Saint-Jean, Pierrefonds, QC H9H 4B2, Canada",45.4875272,-73.84974869999998,Pierrefonds,QC
359,359,CEB-10075,Réno-Dépôt - Vaudreuil-Dorion,"3010 boul. de la Gare, Vaudreuil-Dorion, QC",J7V 0H1,Level2,45.394314,-74.05744,"1,00 $ (CAD) de l'heure","3010 Boulevard de la Gare, Vaudreuil-Dorion, QC J7V 8P2, Canada",45.3935551,-74.05789100000001,Vaudreuil-Dorion,QC
360,360,CEA-10091,DGI - Complexe Desjardins,"1251 rue Jeanne-Mance, Montréal, QC",H2X 3Y2,Level2,45.507924,-73.56414000000002,"1,00 $ (CAD) de l'heure","1251 Rue Jeanne-Mance, Montréal, QC H2X, Canada",45.5070394,-73.5651293,Montréal,QC
361,361,CEA-379,Ste-Adèle - Parc Claude-Henri-Grignon,"999 Boulevard Ste Adèle, Sainte-Adèle, QC",J8B 2N4,Level2,45.951406,-74.13368,"2,50 $ (CAD) par session","999 Boulevard de Sainte-Adèle, Sainte-Adèle, QC J8B 2N4, Canada",45.95116729999999,-74.1335601,Sainte-Adèle,QC
362,362,CEC-00153,Centre de services communautaires du Monastère,"4451 rue Berri, Montréal, QC",H2J 2W9,FastDC,45.524942,-73.580838,"10,00 $ (CAD) de l'heure","4451 Rue Berri, Montréal, QC H2J 1W5, Canada",45.5249085,-73.5807816,Montréal,QC
363,363,CEA-10720,Municipalité de St-Augustin-de-Woburn - Hôtel de V,"590 rue Saint-Augustin, Woburn, QC",G0Y 1R0,Level2,45.384799,-70.86345,"1,00 $ (CAD) de l'heure","590 Rue Saint-Augustin, Woburn, QC G0Y 1R0, Canada",45.3849412,-70.86370939999998,Woburn,QC
364,364,CEB-10059,UdS - Pavillon Z8 CHUS Fleurimont,"3001 12e avenue Nord, Sherbrooke, QC",J1H 5N4,Level2,45.4496459960938,-71.8634872436523,"1,00 $ (CAD) de l'heure","3001 12e Avenue N, Sherbrooke, QC J1H 5H3, Canada",45.4481541,-71.8679171,Sherbrooke,QC
365,365,CEA-302,Plessisville - Hôtel de Ville,"1700, rue Saint-Calixte, Plessisville, QC",G6L 1R3,Level2,46.2186422337573,-71.7714667303657,"2,50 $ (CAD) par session","1700 Rue Saint Calixte, Plessisville, QC G6L, Canada",46.2187378,-71.77165149999998,Plessisville,QC
366,366,CEA-10846,316 | BSR | RPP | 4300 Bélanger,"4300A Bélanger, Montréal, QC",H1T 3M1,Level2,45.566674,-73.585495,"1,00 $ (CAD) de l'heure","4300 Rue Bélanger, Montréal, QC H1T 1A7, Canada",45.5667637,-73.5854248,Montréal,QC
367,367,CEA-10115,Contrecoeur - Hôtel de Ville,"500 rue Marie-Victorin, Contrecoeur, QC",J0L 1C0,Level2,45.857484,-73.239587,"2,50 $ (CAD) par session","500 QC-132, Verchères, QC J0L 2R0, Canada",45.813958899999996,-73.294904,Verchères,QC
368,368,CEA-445,Collège Montmorency,"475 Boulevard de l'avenir, Laval, QC",H7N 5H9,Level2,45.5605281931697,-73.7206976142475,"1,00 $ (CAD) de l'heure","475 Boulevard de l'Avenir, Laval, QC H7N 5H9, Canada",45.559882200000004,-73.71887699999998,Laval,QC
369,369,CEA-11425,RécréoParc - Pavillon d'accueil,"5340, Boul. Marie Victorin, Sainte-Catherine, QC",J5C 1L9,Level2,45.409165,-73.587041,"1,00 $ (CAD) de l'heure","5340 Boulevard Marie-Victorin, Sainte-Catherine, QC J5C, Canada",45.40978079999999,-73.574232,Sainte-Catherine,QC
370,370,CEA-10716,Saint-Polycarpe - Centre sportif Soulanges,"100 Rue des Loisirs, Saint-Polycarpe, QC",J0P 1X0,Level2,45.300928,-74.30982,"1,00 $ (CAD) de l'heure","100 Rue des Loisirs, Saint-Polycarpe, QC J0P 1X0, Canada",45.301064399999994,-74.309963,Saint-Polycarpe,QC
371,371,CEA-11009,Zoo de Granby - Stationnement,"1050 boul. David-Bouchard Nord, Granby, QC",J2G 5P3,Level2,45.4202333,-72.7240667,"1,00 $ (CAD) de l'heure","1050 Boulevard David-Bouchard N, Granby, QC J2H 0Y6, Canada",45.4197916,-72.72398299999998,Granby,QC
372,372,CEA-11477,1414 | BSR | SLA | 4205 Ernest-Hemmingway,"4205 Ernest-Hemmingway, Montréal, QC",H4R 0C4,Level2,45.502385,-73.724947,"1,00 $ (CAD) de l'heure","4205 Avenue Ernest - Hemingway, Saint-Laurent, QC H4R 0C4, Canada",45.5024317,-73.7250335,Saint-Laurent,QC
373,373,CEA-10421,Saint-Lambert - avenue Argyle - Hôtel de ville,"55 Avenue Argyle, Saint-Lambert, QC",J4P 2H3,Level2,45.501462,-73.51321999999998,"1,00 $ (CAD) de l'heure","55 Avenue Argyle, Saint-Lambert, QC J4P 2H3, Canada",45.50162589999999,-73.5133161,Saint-Lambert,QC
374,374,CEA-467,St-Hubert - Viau,"7190 rue Michelet, Montréal, QC",H1S 3H4,Level2,45.575632,-73.582826,"1,00 $ (CAD) de l'heure","7190 Rue Michelet, Saint-Léonard, QC H1S 3H4, Canada",45.5757419,-73.58281109999999,Saint-Léonard,QC
375,375,CEA-10868,325 | BSR | RPP | 5841 des Écores,"5841 Rue des Écores , Montréal, QC",H2G 1X6,Level2,45.544691,-73.58632,"1,00 $ (CAD) de l'heure","5841 Rue des Écores, Montréal, QC H2G 2J2, Canada",45.5447644,-73.5863595,Montréal,QC
376,376,CEB-10009,RONA - Anjou,"7273 boul. des Galeries-d'Anjou, Anjou, QC",H1M 2W2,Level2,45.5977668762207,-73.5607376098633,"1,00 $ (CAD) de l'heure","7273 Boulevard des Galeries d'Anjou, Anjou, QC H1M 2W2, Canada",45.59836,-73.56009259999998,Anjou,QC
377,377,CEA-10209,MTQ - Aire de service de Rivière-Beaudette,"100, Autoroute 20, Rivière-Beaudette, QC",J0P 1R0,Level2,45.212512,-74.338789,"1,00 $ (CAD) de l'heure","100 Autoroute 20, Rivière-Beaudette, QC J0P 1R0, Canada",45.2123994,-74.3386565,Rivière-Beaudette,QC
378,378,CEA-00489,CSRS - École la Maisonnée,"1500 boul. Mi-Vallon, Sherbrooke, QC",J1N 3Y5,Level2,45.382978,-71.98476,"1,00 $ (CAD) de l'heure","1500 Boulevard du Mi-Vallon, Sherbrooke, QC J1N 3Y5, Canada",45.382836,-71.98554,Sherbrooke,QC
379,379,CEA-10383,708 | BSR | CDN-NDG | 6200 Côte Des-Neiges,"6200 ch. de la Côte-des-Neiges, Montréal, QC",H3S 2A1,Level2,45.500598,-73.632462,"1,00 $ (CAD) de l'heure","6200 Chemin de la Côte-des-Neiges, Montréal, QC H3S 2A1, Canada",45.500826200000006,-73.63260240000001,Montréal,QC
380,380,CEA-11308,628 | BSR | VM | 2330 Sherbrooke Ouest,"2330 rue Sherbrooke O, Montréal, QC",H3H 1G8,Level2,45.491734,-73.587228,"1,00 $ (CAD) de l'heure","2330 Rue Sherbrooke Ouest, Montréal, QC H3H 1G8, Canada",45.491395000000004,-73.586883,Montréal,QC
381,381,CEA-11095,Centre de congrès de Thetford,"777 9e rue Sud, Thetford Mines, QC",G6G 0G1,Level2,46.097804,-71.26905500000002,"1,00 $ (CAD) de l'heure","777 9e Rue S, Saint-Adrien-d'Irlande, QC G0N 1M0, Canada",46.0970003,-71.26981769999998,Saint-Adrien-d'Irlande,QC
382,382,CEB-10070,Réno-Dépôt - Vaudreuil-Dorion,"3010 boul. de la Gare, Vaudreuil-Dorion, QC",J7V 0H1,Level2,45.394314,-74.05744,"1,00 $ (CAD) de l'heure","3010 Boulevard de la Gare, Vaudreuil-Dorion, QC J7V 8P2, Canada",45.3935551,-74.05789100000001,Vaudreuil-Dorion,QC
383,383,CEA-10941,108 | BSR | AC | 990 Salaberry,"990 Salaberry, Montréal, QC",H3L 3L6,Level2,45.545777,-73.692268,"1,00 $ (CAD) de l'heure","990 Rue de Salaberry, Montréal, QC H3L, Canada",45.5455256,-73.69254839999998,Montréal,QC
384,384,CEA-10149,611 | BSR | VM | 530 Peel,"530 rue Peel, Montréal, QC",H3C 6M8,Level2,45.495621,-73.563865,"1,00 $ (CAD) de l'heure","530 Rue Peel, Montréal, QC H3C 6M8, Canada",45.49536459999999,-73.56355669999998,Montréal,QC
385,385,CEA-382,Venise-en-Québec - Hôtel de Ville,"250 avenue de Venise Ouest, Venise-en-Québec, QC",J0J 2K0,Level2,45.083675,-73.15225,"2,50 $ (CAD) par session","250 Avenue de Venise O, Venise-en-Québec, QC J0J 2K0, Canada",45.082772399999996,-73.14902409999998,Venise-en-Québec,QC
386,386,CEA-10074,St-Hubert - Rouyn-Noranda,"60 Avenue Québec, Rouyn-Noranda, QC",J9X 6P9,Level2,48.2425400954968,-79.02767571469779,"1,00 $ (CAD) de l'heure","60 Avenue Québec, Rouyn-Noranda, QC J9X 6P9, Canada",48.242362,-79.02756959999998,Rouyn-Noranda,QC
387,387,CEC-00118,BRCC - Faubourg Boisbriand,"3484 Desgrandes Tourelle, Boisbriand, QC",J7H 1M9,FastDC,45.62993,-73.848822,"10,00 $ (CAD) de l'heure","3484 Avenue des Grandes Tourelles, Boisbriand, QC J7H 0A2, Canada",45.629783700000004,-73.84836779999998,Boisbriand,QC
388,388,CEB-10131,METRO - Repentigny,"150 rue Louvain, Repentigny, QC",J6A 8J7,Level2,45.748969,-73.45428000000003,"1,00 $ (CAD) de l'heure","150 Rue Louvain, Repentigny, QC J6A 8J7, Canada",45.7487153,-73.45457689999998,Repentigny,QC
389,389,CEA-10864,627 | BSR | VM | 1475 Alexandre DeSève,"1475 Rue Alexandre-DeSève, Montréal, QC",H2L 4P2,Level2,45.521667,-73.554563,"1,00 $ (CAD) de l'heure","1475 Rue Alexandre-DeSève, Montréal, QC H2L 4P2, Canada",45.5218232,-73.554902,Montréal,QC
390,390,CEB-10118,Exo - Stationnement incitatif Châteauguay,"42 boul. Saint-Jean Baptiste, Chateauguay, QC",J6J 3H6,Level2,45.3654670715332,-73.7114791870117,"2,50 $ (CAD) par session","42 Boulevard Saint-Jean-Baptiste, Châteauguay, QC J6K 3A4, Canada",45.3654394,-73.7115335,Châteauguay,QC
391,391,CEA-10958,725 | BSR | CDN-NDG | 7440 Décarie,"7440 Décarie, H4P 2N1, QC",H4A 3H9,Level2,45.494349,-73.65420999999998,"1,00 $ (CAD) de l'heure","7440 Boulevard Décarie, Montréal, QC H4P 2N1, Canada",45.495273299999994,-73.655125,Montréal,QC
392,392,CEA-10213,Exo - Stationnement incitatif Sainte-Julie,"180 boul. Armand Frappier, Sainte-Julie, QC",J3E 0C7,Level2,45.582114,-73.32496400000002,"2,50 $ (CAD) par session","180 Boulevard Armand-Frappier, Sainte-Julie, QC J3E 2N9, Canada",45.578899299999996,-73.349953,Sainte-Julie,QC
393,393,CEA-10048,St-Hubert - Chicoutimi,"939 boul. Talbot, Chicoutimi, QC",G7H 4B5,Level2,48.413103,-71.04915,"1,00 $ (CAD) de l'heure","939 Boulevard Talbot, Chicoutimi, QC G7H 4B5, Canada",48.4133049,-71.049258,Chicoutimi,QC
